MessageType,Provider,LatitudeDegrees,LongitudeDegrees,AltitudeMeters,SpeedMps,AccuracyMeters,BearingDegrees,UnixTimeMillis
Fix,GT,37.4441049,-122.2327661,10.851,0.0009954604,0.1,30.257324,1626727760999
Fix,GT,37.4441049,-122.2327661,10.851,0.001,0.1,30.257294,1626727761999
Fix,GT,37.4441049,-122.2327661,10.851,0.0014142136,0.1,30.257477,1626727762999
Fix,GT,37.4441049,-122.2327661,10.851,0.0022323343,0.1,30.25708,1626727763999
Fix,GT,37.4441049,-122.232766,10.852,0.01075187,0.1,30.346375,1626727764999
Fix,GT,37.4441038,-122.2327674,10.853004545092585,0.38000757,0.1,29.291016,1626727765999
Fix,GT,37.4441003,-122.2327731,10.841009092330932,0.7810196,0.1,21.812927,1626727766999
Fix,GT,37.4440937,-122.2327807,10.82200909459591,1.0410138,0.1,9.891846,1626727767999
Fix,GT,37.4440851,-122.2327869,10.7950136449337,0.8658325,0.1,356.9378,1626727768999
Fix,GT,37.4440801,-122.232789,10.783,0.21422768,0.1,350.16553,1626727769999
Fix,GT,37.4440799,-122.2327892,10.781004550457,0.021145454,0.1,349.57043,1626727770999
Fix,GT,37.4440836,-122.2327914,10.78,0.9594279,0.1,346.4397,1626727771999
Fix,GT,37.4440939,-122.2328049,10.812986341834067,1.944123,0.1,327.6,1626727772999
Fix,GT,37.4441013,-122.2328329,10.79601821541786,2.763911,0.1,297.46228,1626727773999
Fix,GT,37.4440975,-122.2328721,10.743027329921723,3.6755922,0.1,266.2286,1626727774999
Fix,GT,37.4440775,-122.2329103,10.647045560002327,3.9928794,0.1,237.08157,1626727775999
Fix,GT,37.4440491,-122.2329349,10.537036457061769,3.1580317,0.1,215.71785,1626727776999
Fix,GT,37.4440303,-122.2329464,10.45599544173479,2.0088437,0.1,209.02931,1626727777999
Fix,GT,37.4440123,-122.232958,10.411013677835465,2.4611862,0.1,207.9017,1626727778999
Fix,GT,37.4439894,-122.2329727,10.326072966575625,3.4015615,0.1,207.18573,1626727779999
Fix,GT,37.4439568,-122.2329935,10.252041054427623,4.541374,0.1,206.95483,1626727780999
Fix,GT,37.4439208,-122.2330173,10.177031939148902,4.3695116,0.1,207.93628,1626727781999
Fix,GT,37.4438897,-122.2330422,10.111054766416547,3.740511,0.1,213.03122,1626727782999
Fix,GT,37.4438682,-122.2330645,10.042036519527434,2.4018621,0.1,218.7422,1626727783999
Fix,GT,37.4438563,-122.2330822,9.916050226807595,2.0816677,0.1,226.35304,1626727784999
Fix,GT,37.4438493,-122.2331065,9.766100479841231,2.576381,0.1,244.34828,1626727785999
Fix,GT,37.4438515,-122.2331419,9.722949747622014,3.7434711,0.1,269.31155,1626727786999
Fix,GT,37.4438657,-122.2331905,9.63706397342682,5.573813,0.1,290.61877,1626727787999
Fix,GT,37.4438927,-122.2332569,9.444100554585455,7.609825,0.1,297.25775,1626727788999
Fix,GT,37.4439303,-122.2333392,9.204123440086844,8.982583,0.1,300.6814,1626727789999
Fix,GT,37.4439751,-122.2334308,8.982086886763572,10.038308,0.1,301.56067,1626727790999
Fix,GT,37.4440241,-122.23353,8.698132647752761,10.485094,0.1,301.84216,1626727791999
Fix,GT,37.4440754,-122.2336321,8.394096079051495,10.883926,0.1,302.3792,1626727792999
Fix,GT,37.4441286,-122.2337363,8.182137289762498,10.999548,0.1,302.774,1626727793999
Fix,GT,37.4441832,-122.2338401,7.955100705385208,10.998333,0.1,303.54742,1626727794999
Fix,GT,37.4442371,-122.2339419,7.728128202199936,10.465198,0.1,303.34125,1626727795999
Fix,GT,37.444286,-122.2340348,7.535073276519776,9.211801,0.1,303.2887,1626727796999
Fix,GT,37.4443285,-122.2341154,7.350059552669525,7.879068,0.1,303.41895,1626727797999
Fix,GT,37.4443603,-122.2341813,7.211036656856537,5.604772,0.1,299.73065,1626727798999
Fix,GT,37.4443789,-122.2342247,7.110036665439606,3.3379087,0.1,298.49173,1626727799999
Fix,GT,37.4443902,-122.2342507,7.059009168744088,1.9363859,0.1,298.41455,1626727800999
Fix,GT,37.4443953,-122.2342627,7.038004585504533,0.45011738,0.1,298.42163,1626727801999
Fix,GT,37.4443956,-122.2342634,7.026,0.0030334624,0.1,298.4227,1626727802999
Fix,GT,37.4443956,-122.2342634,7.026,0.0031523574,0.1,298.4234,1626727803999
Fix,GT,37.4443956,-122.2342634,7.027,0.001417985,0.1,298.4231,1626727804999
Fix,GT,37.4443956,-122.2342633,7.027,0.0014142136,0.1,298.42044,1626727805999
Fix,GT,37.4443956,-122.2342633,7.027,0.0010045914,0.1,298.42038,1626727806999
Fix,GT,37.4443956,-122.2342633,7.027,0.0019954075,0.1,298.42047,1626727807999
Fix,GT,37.4443956,-122.2342633,7.027,0.0022303902,0.1,298.42004,1626727808999
Fix,GT,37.4443956,-122.2342633,7.027,0.002236068,0.1,298.42032,1626727809999
Fix,GT,37.4443956,-122.2342633,7.027,0.0009954042,0.1,298.42047,1626727810999
Fix,GT,37.4443956,-122.2342633,7.027995403051376,0.0014142136,0.1,298.4203,1626727811999
Fix,GT,37.4443956,-122.2342633,7.028,0.001407711,0.1,298.42053,1626727812999
Fix,GT,37.4443957,-122.2342634,7.027004599273205,0.078402355,0.1,298.42157,1626727813999
Fix,GT,37.4444003,-122.2342749,6.988018401622773,2.6071548,0.1,297.93167,1626727814999
Fix,GT,37.4444149,-122.2343166,6.890064422369003,5.2112236,0.1,293.05423,1626727815999
Fix,GT,37.444427,-122.2343813,6.968944767236709,6.516231,0.1,280.7885,1626727816999
Fix,GT,37.4444246,-122.2344619,7.084917130470275,7.5443215,0.1,262.93826,1626727817999
Fix,GT,37.4443978,-122.2345463,7.210023025274277,8.677483,0.1,242.57784,1626727818999
Fix,GT,37.4443429,-122.2346259,7.282912482440472,9.81021,0.1,223.76718,1626727819999
Fix,GT,37.4442667,-122.234695,7.456866385996341,11.181977,0.1,213.43033,1626727820999
Fix,GT,37.4441745,-122.2347668,7.737870963335037,12.866391,0.1,211.1288,1626727821999
Fix,GT,37.4440696,-122.2348415,8.110820221543312,13.880228,0.1,208.45367,1626727822999
Fix,GT,37.443955,-122.2349167,8.578686467170716,14.871477,0.1,207.03183,1626727823999
Fix,GT,37.4438304,-122.2349968,9.008889311313627,16.205437,0.1,207.02643,1626727824999
Fix,GT,37.4436971,-122.2350827,9.307889285564425,17.108404,0.1,207.1814,1626727825999
Fix,GT,37.4435561,-122.235175,9.463958471357822,18.175106,0.1,207.6299,1626727826999
Fix,GT,37.443408,-122.2352732,9.573912306904791,18.934032,0.1,207.8729,1626727827999
Fix,GT,37.4432583,-122.2353739,9.762893817782402,18.694065,0.1,208.222,1626727828999
Fix,GT,37.4431116,-122.235473,9.94792149823904,18.267426,0.1,208.13068,1626727829999
Fix,GT,37.442968,-122.2355696,10.220861431717871,18.001066,0.1,208.01459,1626727830999
Fix,GT,37.4428247,-122.2356653,10.572782856464388,18.030909,0.1,207.8517,1626727831999
Fix,GT,37.442681,-122.2357602,11.192694996356964,18.032602,0.1,207.49583,1626727832999
Fix,GT,37.4425365,-122.2358543,11.920616340816022,18.014557,0.1,207.29716,1626727833999
Fix,GT,37.4423946,-122.2359468,12.921500652074814,17.444212,0.1,207.49287,1626727834999
Fix,GT,37.4422581,-122.2360365,13.9755329028368,16.725471,0.1,207.68677,1626727835999
Fix,GT,37.4421281,-122.236124,14.89258829343319,16.131172,0.1,208.33083,1626727836999
Fix,GT,37.4420016,-122.2362109,15.68067147952318,15.995578,0.1,208.7562,1626727837999
Fix,GT,37.4418755,-122.2362987,16.435680651366713,15.988754,0.1,209.07213,1626727838999
Fix,GT,37.44175,-122.2363877,17.146685198545455,16.13507,0.1,209.48505,1626727839999
Fix,GT,37.4416207,-122.2364789,17.799680490970612,16.86084,0.1,209.10196,1626727840999
Fix,GT,37.4414857,-122.2365773,18.568601668834685,17.644087,0.1,211.22163,1626727841999
Fix,GT,37.4413519,-122.2366907,19.46055986976624,18.352566,0.1,216.01514,1626727842999
Fix,GT,37.4412194,-122.2368222,20.43658293259144,19.198484,0.1,219.52988,1626727843999
Fix,GT,37.4410879,-122.2369705,21.43548548454046,20.067284,0.1,223.42496,1626727844999
Fix,GT,37.4409593,-122.2371359,22.624489995241166,20.808142,0.1,227.48071,1626727845999
Fix,GT,37.4408393,-122.237317,23.836420300126075,20.889555,0.1,232.55878,1626727846999
Fix,GT,37.4407302,-122.23751,25.027429428696628,21.031742,0.1,235.54268,1626727847999
Fix,GT,37.4406252,-122.2377085,26.3004710419178,21.08859,0.1,236.7715,1626727848999
Fix,GT,37.4405206,-122.2379067,27.521429135441775,20.967838,0.1,235.59174,1626727849999
Fix,GT,37.44041,-122.2380982,28.864480061531065,20.906963,0.1,232.68002,1626727850999
Fix,GT,37.4402933,-122.2382835,30.024540293514725,20.91157,0.1,231.04575,1626727851999
Fix,GT,37.4401732,-122.238466,31.107530886113647,21.001019,0.1,229.87477,1626727852999
Fix,GT,37.4400487,-122.2386462,32.14254469752312,21.237473,0.1,228.36357,1626727853999
Fix,GT,37.4399181,-122.2388236,33.26051206326485,21.375319,0.1,226.12358,1626727854999
Fix,GT,37.4397824,-122.2389943,34.27645150434971,21.286303,0.1,224.15887,1626727855999
Fix,GT,37.4396433,-122.2391591,35.18061874425411,21.145054,0.1,222.37842,1626727856999
Fix,GT,37.4395016,-122.2393133,36.38549307888746,20.441065,0.1,219.41743,1626727857999
Fix,GT,37.4393597,-122.2394558,37.57447899341584,20.039335,0.1,218.49733,1626727858999
Fix,GT,37.439218,-122.239593,38.58559984397888,19.692247,0.1,216.72495,1626727859999
Fix,GT,37.4390745,-122.2397222,39.54361835813522,19.539547,0.1,214.81448,1626727860999
Fix,GT,37.4389289,-122.2398446,40.4195437746048,19.358242,0.1,212.98285,1626727861999
Fix,GT,37.4387818,-122.2399606,41.25464610648155,19.270092,0.1,211.45407,1626727862999
Fix,GT,37.4386315,-122.2400719,41.81880903488398,19.509792,0.1,209.82785,1626727863999
Fix,GT,37.4384761,-122.2401784,42.30679966825247,19.769558,0.1,207.62625,1626727864999
Fix,GT,37.4383156,-122.2402783,42.700869518041614,19.988895,0.1,205.37024,1626727865999
Fix,GT,37.4381505,-122.2403719,43.01288812971114,20.24371,0.1,203.5481,1626727866999
Fix,GT,37.4379811,-122.2404609,43.19489276492596,20.495672,0.1,201.89774,1626727867999
Fix,GT,37.4378091,-122.2405452,43.32490672826767,20.473734,0.1,200.64526,1626727868999
Fix,GT,37.4376361,-122.2406256,43.449018659114834,20.509413,0.1,200.17671,1626727869999
Fix,GT,37.4374629,-122.2407077,43.594920678496365,20.595184,0.1,201.0626,1626727870999
Fix,GT,37.4372905,-122.2407947,43.874878652215,20.649416,0.1,202.54893,1626727871999
Fix,GT,37.4371203,-122.2408872,44.30973857545853,20.427387,0.1,204.11069,1626727872999
Fix,GT,37.4369564,-122.2409863,44.8357385020256,19.986,0.1,207.0463,1626727873999
Fix,GT,37.4368011,-122.2410959,45.42463568234443,19.617378,0.1,211.4324,1626727874999
Fix,GT,37.4366588,-122.2412213,46.175649605155,19.00434,0.1,217.98499,1626727875999
Fix,GT,37.4365337,-122.2413617,46.92966820824146,18.339794,0.1,224.3151,1626727876999
Fix,GT,37.4364224,-122.2415099,47.50370084381103,17.712873,0.1,227.9375,1626727877999
Fix,GT,37.4363206,-122.241659,48.14065868794918,17.004854,0.1,230.02962,1626727878999
Fix,GT,37.4362278,-122.2418051,48.85471004831791,16.02072,0.1,232.53067,1626727879999
Fix,GT,37.4361454,-122.241946,49.480747393846514,14.858595,0.1,234.34006,1626727880999
Fix,GT,37.4360765,-122.242077,50.09770989310741,12.852247,0.1,238.15448,1626727881999
Fix,GT,37.4360268,-122.2421914,50.57780342590809,10.073387,0.1,243.49548,1626727882999
Fix,GT,37.435998,-122.2422819,50.90586423569918,7.215508,0.1,250.38663,1626727883999
Fix,GT,37.4359847,-122.2423465,51.12692039376497,4.614084,0.1,256.58057,1626727884999
Fix,GT,37.4359797,-122.242385,51.2609625287056,2.4012764,0.1,260.32916,1626727885999
Fix,GT,37.4359777,-122.2424075,51.30897188937664,1.9843488,0.1,262.38153,1626727886999
Fix,GT,37.4359759,-122.2424362,51.358953137636185,3.6110237,0.1,264.85773,1626727887999
Fix,GT,37.4359752,-122.2424913,51.48694843828678,6.094963,0.1,269.36218,1626727888999
Fix,GT,37.4359801,-122.2425697,51.72789685034752,7.641835,0.1,275.93942,1626727889999
Fix,GT,37.4359947,-122.242659,52.13678427135944,8.526866,0.1,283.38446,1626727890999
Fix,GT,37.4360188,-122.2427572,52.50682174408436,9.684499,0.1,288.0929,1626727891999
Fix,GT,37.4360497,-122.2428653,52.97374193245172,10.654901,0.1,290.32098,1626727892999
Fix,GT,37.436087,-122.2429811,53.52273247683048,11.38945,0.1,292.60162,1626727893999
Fix,GT,37.4361295,-122.2431013,54.13470424139499,11.851316,0.1,294.46548,1626727894999
Fix,GT,37.4361756,-122.2432227,54.82069947052002,11.790308,0.1,295.70746,1626727895999
Fix,GT,37.4362214,-122.2433391,55.49169469726085,11.156979,0.1,296.28992,1626727896999
Fix,GT,37.4362653,-122.2434501,56.12970871424675,10.906169,0.1,296.38037,1626727897999
Fix,GT,37.4363099,-122.2435608,56.73072743773461,11.0910015,0.1,296.81873,1626727898999
Fix,GT,37.4363571,-122.2436744,57.379732072532185,11.672095,0.1,297.90167,1626727899999
Fix,GT,37.4364091,-122.2437924,58.08967088282109,12.083718,0.1,299.3142,1626727900999
Fix,GT,37.436465,-122.2439106,58.82164258217812,12.2822075,0.1,301.21497,1626727901999
Fix,GT,37.4365262,-122.2440281,59.55167071592808,12.572104,0.1,304.20502,1626727902999
Fix,GT,37.4365934,-122.2441444,60.271647106230255,12.872726,0.1,306.6889,1626727903999
Fix,GT,37.4366656,-122.2442602,61.06561406683922,13.161742,0.1,308.74698,1626727904999
Fix,GT,37.436743,-122.2443749,61.871595138311385,13.425719,0.1,310.9972,1626727905999
Fix,GT,37.4368248,-122.2444888,62.724604453563686,13.700607,0.1,312.20602,1626727906999
Fix,GT,37.4369091,-122.2446038,63.579594938397406,13.942226,0.1,312.67975,1626727907999
Fix,GT,37.4369948,-122.2447204,64.38763252556325,14.1756315,0.1,312.3825,1626727908999
Fix,GT,37.4370819,-122.2448404,65.16164656531812,14.561092,0.1,312.0871,1626727909999
Fix,GT,37.4371716,-122.2449642,65.84469832611084,15.033788,0.1,312.3156,1626727910999
Fix,GT,37.4372647,-122.2450914,66.53968881618978,15.5432,0.1,312.62045,1626727911999
Fix,GT,37.4373619,-122.2452229,67.20068873751163,16.195015,0.1,312.79507,1626727912999
Fix,GT,37.4374631,-122.2453597,67.88467922425271,16.855833,0.1,312.83804,1626727913999
Fix,GT,37.4375692,-122.2455008,68.59366971039772,17.462894,0.1,313.4348,1626727914999
Fix,GT,37.4376786,-122.2456437,69.3156460288763,17.547098,0.1,313.99127,1626727915999
Fix,GT,37.4377891,-122.2457854,70.05764121866227,17.526155,0.1,314.47604,1626727916999
Fix,GT,37.4378988,-122.2459272,70.82563168406486,17.457926,0.1,313.47006,1626727917999
Fix,GT,37.4380063,-122.2460735,71.57467882299423,17.814606,0.1,312.07648,1626727918999
Fix,GT,37.4381156,-122.2462247,72.32861732494831,18.41083,0.1,312.2773,1626727919999
Fix,GT,37.4382309,-122.2463798,73.12563612151146,18.986347,0.1,313.4256,1626727920999
Fix,GT,37.4383516,-122.246536,73.93157930707932,19.567917,0.1,314.50635,1626727921999
Fix,GT,37.4384765,-122.2466922,74.76562648177148,19.48863,0.1,315.4374,1626727922999
Fix,GT,37.4386019,-122.2468452,75.52465003395082,19.404036,0.1,315.83163,1626727923999
Fix,GT,37.4387274,-122.2469973,76.28763575434684,19.257923,0.1,315.82608,1626727924999
Fix,GT,37.4388505,-122.2471479,77.0486356625557,19.00868,0.1,315.401,1626727925999
Fix,GT,37.4389722,-122.2472996,77.80565923070907,19.105251,0.1,314.8992,1626727926999
Fix,GT,37.4390945,-122.2474534,78.57263074028491,19.384521,0.1,314.74188,1626727927999
Fix,GT,37.4392189,-122.2476109,79.35963538259267,19.87691,0.1,314.55594,1626727928999
Fix,GT,37.439346,-122.2477723,80.16861634486914,20.213634,0.1,314.52374,1626727929999
Fix,GT,37.4394748,-122.2479362,80.97760677295923,20.517939,0.1,314.4839,1626727930999
Fix,GT,37.4396049,-122.2481017,81.79461615175009,20.583553,0.1,314.576,1626727931999
Fix,GT,37.4397354,-122.2482672,82.61961605519056,20.624445,0.1,314.57977,1626727932999
Fix,GT,37.4398662,-122.2484339,83.43860173487661,20.773241,0.1,314.23962,1626727933999
Fix,GT,37.439997,-122.2486029,84.27658739703894,20.88714,0.1,313.9867,1626727934999
Fix,GT,37.4401279,-122.2487728,85.145582549572,20.926027,0.1,313.87994,1626727935999
Fix,GT,37.4402591,-122.2489441,86.01457769972086,21.120663,0.1,313.60922,1626727936999
Fix,GT,37.4403906,-122.2491171,86.86860132431984,21.174414,0.1,313.50522,1626727937999
Fix,GT,37.4405222,-122.2492901,87.71858223485945,21.138866,0.1,313.6561,1626727938999
Fix,GT,37.4406539,-122.2494625,88.5656058626771,21.122736,0.1,313.7801,1626727939999
Fix,GT,37.4407859,-122.2496346,89.39863426733017,21.152683,0.1,313.79266,1626727940999
Fix,GT,37.440919,-122.2498074,90.2305961627364,21.381638,0.1,313.98172,1626727941999
Fix,GT,37.4410537,-122.2499816,91.0826103180647,21.579903,0.1,314.01187,1626727942999
Fix,GT,37.4411896,-122.2501581,91.93760546690226,21.841633,0.1,313.88904,1626727943999
Fix,GT,37.4413272,-122.2503364,92.8085815896988,22.0745,0.1,313.96454,1626727944999
Fix,GT,37.4414659,-122.2505169,93.75653392624857,22.284298,0.1,313.80368,1626727945999
Fix,GT,37.4416055,-122.2506993,94.76451953226328,22.472244,0.1,313.7771,1626727946999
Fix,GT,37.4417462,-122.2508834,95.7985194118619,22.657637,0.1,313.71487,1626727947999
Fix,GT,37.441888,-122.2510689,96.84150501298905,22.81325,0.1,313.83264,1626727948999
Fix,GT,37.44203,-122.2512552,97.89653344726564,22.77302,0.1,313.5456,1626727949999
Fix,GT,37.4421699,-122.2514427,98.87652856850625,22.680773,0.1,312.52005,1626727950999
Fix,GT,37.4423058,-122.2516336,99.81859512919188,22.622095,0.1,311.0421,1626727951999
Fix,GT,37.4424374,-122.2518288,100.71554738408324,22.592884,0.1,309.55402,1626727952999
Fix,GT,37.442565,-122.2520274,101.62858539021016,22.538975,0.1,308.23737,1626727953999
Fix,GT,37.4426878,-122.2522297,102.51357575285436,22.468355,0.1,306.52744,1626727954999
Fix,GT,37.4428059,-122.2524356,103.4005613427162,22.415546,0.1,304.94504,1626727955999
Fix,GT,37.4429194,-122.2526448,104.25758507388832,22.36803,0.1,303.52786,1626727956999
Fix,GT,37.4430283,-122.2528572,105.14757065880298,22.320877,0.1,302.10825,1626727957999
Fix,GT,37.443133,-122.2530724,106.01759917640686,22.273277,0.1,300.69574,1626727958999
Fix,GT,37.4432335,-122.25329,106.88959429830312,22.260418,0.1,299.55106,1626727959999
Fix,GT,37.4433306,-122.2535102,107.7515751003623,22.262754,0.1,298.36444,1626727960999
Fix,GT,37.4434238,-122.253733,108.63157021892071,22.267382,0.1,296.98636,1626727961999
Fix,GT,37.4435125,-122.2539588,109.51956533509492,22.264,0.1,295.54944,1626727962999
Fix,GT,37.4435966,-122.2541868,110.4025795493126,22.169271,0.1,294.1898,1626727963999
Fix,GT,37.4436759,-122.2544162,111.27657944440844,22.063997,0.1,292.72037,1626727964999
Fix,GT,37.44375,-122.2546469,112.13658889997004,21.987753,0.1,291.2476,1626727965999
Fix,GT,37.4438196,-122.25488,112.99857922410963,21.978083,0.1,289.8374,1626727966999
Fix,GT,37.4438841,-122.2551121,113.84260303288698,21.551397,0.1,288.69647,1626727967999
Fix,GT,37.4439444,-122.2553435,114.7085790090561,21.559868,0.1,287.57098,1626727968999
Fix,GT,37.4440009,-122.2555765,115.54661718559264,21.511286,0.1,286.31323,1626727969999
Fix,GT,37.4440529,-122.2558101,116.40060273110866,21.418358,0.1,284.91486,1626727970999
Fix,GT,37.4441,-122.2560442,117.24359305197,21.320566,0.1,283.50876,1626727971999
Fix,GT,37.4441425,-122.2562788,118.05060731709004,21.237406,0.1,282.11597,1626727972999
Fix,GT,37.4441803,-122.2565137,118.84165032505987,21.16331,0.1,280.83148,1626727973999
Fix,GT,37.4442138,-122.2567487,119.56665502929688,21.096123,0.1,279.6392,1626727974999
Fix,GT,37.4442437,-122.256984,120.25066932082176,21.067362,0.1,278.54202,1626727975999
Fix,GT,37.4442697,-122.2572199,120.91469319915772,21.08801,0.1,277.2635,1626727976999
Fix,GT,37.4442911,-122.2574566,121.54969791781902,21.071043,0.1,275.81354,1626727977999
Fix,GT,37.4443078,-122.2576938,122.16770743501186,21.075052,0.1,274.3556,1626727978999
Fix,GT,37.4443199,-122.2579318,122.72273613977433,21.128149,0.1,272.9844,1626727979999
Fix,GT,37.4443273,-122.2581708,123.24176006746292,21.188091,0.1,271.65915,1626727980999
Fix,GT,37.4443308,-122.2584106,123.73978400707244,21.259872,0.1,270.40436,1626727981999
Fix,GT,37.4443296,-122.2586515,124.20778395074606,21.383339,0.1,268.98376,1626727982999
Fix,GT,37.4443237,-122.258894,124.61082231318952,21.552013,0.1,267.5923,1626727983999
Fix,GT,37.4443135,-122.2591384,124.95986549925804,21.76023,0.1,266.445,1626727984999
Fix,GT,37.4442995,-122.2593851,125.23288468503952,22.013617,0.1,265.41473,1626727985999
Fix,GT,37.4442819,-122.2596347,125.4678894596696,22.364077,0.1,264.48706,1626727986999
Fix,GT,37.4442618,-122.2598887,125.66790866142512,22.7537,0.1,264.25232,1626727987999
Fix,GT,37.4442416,-122.2601459,125.82094710665942,22.981611,0.1,264.3625,1626727988999
Fix,GT,37.4442214,-122.2604057,125.93994228315354,23.228827,0.1,264.30365,1626727989999
Fix,GT,37.4442005,-122.2606694,126.02294226813316,23.689707,0.1,264.14688,1626727990999
Fix,GT,37.4441789,-122.2609363,126.14192781639098,23.660288,0.1,264.11255,1626727991999
Fix,GT,37.4441573,-122.2612005,126.29789891791344,23.330315,0.1,263.99008,1626727992999
Fix,GT,37.4441355,-122.2614606,126.47491814935206,22.955406,0.1,263.89825,1626727993999
Fix,GT,37.4441139,-122.2617164,126.64990849721433,22.58183,0.1,263.89066,1626727994999
Fix,GT,37.4440935,-122.2619684,126.75593737733364,22.22682,0.1,264.22348,1626727995999
Fix,GT,37.444074,-122.2622163,126.90494699782133,21.868328,0.1,264.27502,1626727996999
Fix,GT,37.4440548,-122.2624602,127.02793734556435,21.518839,0.1,264.2877,1626727997999
Fix,GT,37.4440363,-122.2627004,127.12396625381707,21.182737,0.1,264.53198,1626727998999
Fix,GT,37.4440189,-122.2629369,127.17696624547244,20.864294,0.1,264.70444,1626727999999
Fix,GT,37.4440021,-122.2631699,127.27593247258665,20.537304,0.1,264.7101,1626728000999
Fix,GT,37.4439852,-122.2633992,127.37295175421238,20.220675,0.1,264.53577,1626728001999
Fix,GT,37.4439677,-122.2636252,127.43399034833908,19.970112,0.1,264.30716,1626728002999
Fix,GT,37.4439507,-122.263848,127.50497586488724,19.743174,0.1,264.55765,1626728003999
Fix,GT,37.4439352,-122.2640718,127.54398551499844,20.097527,0.1,265.27325,1626728004999
Fix,GT,37.4439228,-122.2643007,127.5470193181038,20.522161,0.1,266.69962,1626728005999
Fix,GT,37.4439156,-122.2645348,127.51901449233294,20.944857,0.1,268.53723,1626728006999
Fix,GT,37.443913,-122.2647729,127.50400483202934,21.110695,0.1,269.53485,1626728007999
Fix,GT,37.443914,-122.2650124,127.43602899968626,21.368647,0.1,270.73175,1626728008999
Fix,GT,37.4439189,-122.2652562,127.3590435102582,21.797522,0.1,271.82428,1626728009999
Fix,GT,37.4439277,-122.2655047,127.24005802941322,22.233252,0.1,272.9743,1626728010999
Fix,GT,37.4439413,-122.2657576,127.09806771767138,22.644283,0.1,274.40643,1626728011999
Fix,GT,37.4439602,-122.2660147,126.9020774116516,23.066212,0.1,275.8228,1626728012999
Fix,GT,37.4439845,-122.2662761,126.67912582492828,23.52372,0.1,277.18344,1626728013999
Fix,GT,37.4440143,-122.2665421,126.383140381217,24.058327,0.1,278.45203,1626728014999
Fix,GT,37.4440491,-122.2668139,126.07816946732996,24.66469,0.1,279.51364,1626728015999
Fix,GT,37.4440891,-122.267091,125.73215982478855,25.158794,0.1,280.78302,1626728016999
Fix,GT,37.4441353,-122.2673718,125.3851792460084,25.572763,0.1,282.33603,1626728017999
Fix,GT,37.4441888,-122.2676546,125.02215506172182,25.82446,0.1,284.14523,1626728018999
Fix,GT,37.4442493,-122.2679357,124.66715510177612,25.696268,0.1,285.78735,1626728019999
Fix,GT,37.4443155,-122.2682128,124.28220847183464,25.506325,0.1,287.3061,1626728020999
Fix,GT,37.444387,-122.2684856,123.91717942905429,25.32003,0.1,288.83438,1626728021999
Fix,GT,37.4444637,-122.2687539,123.5431891744137,25.129436,0.1,290.3006,1626728022999
Fix,GT,37.4445451,-122.2690177,123.17618437361718,24.981985,0.1,291.77136,1626728023999
Fix,GT,37.4446318,-122.269279,122.74426692211628,25.171598,0.1,293.19733,1626728024999
Fix,GT,37.4447242,-122.2695406,122.34318932086232,25.468973,0.1,294.22836,1626728025999
Fix,GT,37.4448214,-122.2698023,122.01419422769546,25.609919,0.1,295.47705,1626728026999
Fix,GT,37.4449237,-122.2700628,121.65819427537916,25.790823,0.1,296.77902,1626728027999
Fix,GT,37.4450316,-122.2703221,121.34419918358326,25.991325,0.1,298.1084,1626728028999
Fix,GT,37.4451457,-122.27058,121.02513606452942,26.188889,0.1,299.73587,1626728029999
Fix,GT,37.4452669,-122.2708348,120.780102073431,26.314867,0.1,301.47928,1626728030999
Fix,GT,37.445394,-122.2710868,120.61207779026032,26.466173,0.1,303.0056,1626728031999
Fix,GT,37.4455275,-122.2713355,120.49505835843088,26.609491,0.1,304.68472,1626728032999
Fix,GT,37.4456676,-122.2715804,120.41897567802668,26.727598,0.1,306.3596,1626728033999
Fix,GT,37.4458135,-122.2718213,120.43696107530592,26.809267,0.1,307.79663,1626728034999
Fix,GT,37.445964,-122.2720584,120.57186859375238,26.849737,0.1,309.0389,1626728035999
Fix,GT,37.4461188,-122.2722916,120.7928782977462,26.834988,0.1,310.2305,1626728036999
Fix,GT,37.4462764,-122.2725208,121.05786852777004,26.760443,0.1,311.1319,1626728037999
Fix,GT,37.4464351,-122.2727481,121.40882466077804,26.697828,0.1,311.00168,1626728038999
Fix,GT,37.4465931,-122.2729749,121.77982461357118,26.626774,0.1,311.08063,1626728039999
Fix,GT,37.446751,-122.2732009,122.15479045683144,26.54891,0.1,311.15897,1626728040999
Fix,GT,37.4469087,-122.2734258,122.61675627958776,26.453878,0.1,311.243,1626728041999
Fix,GT,37.4470656,-122.2736499,123.13277084678413,26.327393,0.1,311.1105,1626728042999
Fix,GT,37.4472212,-122.2738736,123.68971226572992,26.191704,0.1,310.91742,1626728043999
Fix,GT,37.4473758,-122.274096,124.31867804515362,26.04875,0.1,311.04236,1626728044999
Fix,GT,37.44753,-122.274317,125.008648686409,25.914003,0.1,311.12186,1626728045999
Fix,GT,37.4476835,-122.2745366,125.73463394999504,25.77622,0.1,311.16293,1626728046999
Fix,GT,37.4478363,-122.2747551,126.44763385611772,25.65139,0.1,311.18024,1626728047999
Fix,GT,37.4479884,-122.2749724,127.18062888360024,25.503853,0.1,311.18063,1626728048999
Fix,GT,37.4481397,-122.2751882,127.91764832162858,25.435434,0.1,311.30142,1626728049999
Fix,GT,37.4482914,-122.275404,128.6756238031387,25.47431,0.1,311.3146,1626728050999
Fix,GT,37.4484441,-122.2756198,129.40264814567564,25.630768,0.1,311.67215,1626728051999
Fix,GT,37.4485989,-122.2758364,130.1136187222004,25.850286,0.1,311.77542,1626728052999
Fix,GT,37.4487548,-122.2760546,130.8476528505683,25.978537,0.1,311.70953,1626728053999
Fix,GT,37.44891,-122.2762739,131.59164297598602,25.8937,0.1,311.01117,1626728054999
Fix,GT,37.4490622,-122.276495,132.32964778089524,25.82594,0.1,310.3902,1626728055999
Fix,GT,37.4492125,-122.276718,133.02867704987526,25.878323,0.1,309.83472,1626728056999
Fix,GT,37.4493627,-122.2769426,133.71469164681434,25.996956,0.1,309.89404,1626728057999
Fix,GT,37.4495131,-122.2771674,134.36369646370412,25.809711,0.1,309.946,1626728058999
Fix,GT,37.4496609,-122.2773894,134.93575025612117,25.378607,0.1,309.51663,1626728059999
Fix,GT,37.4498051,-122.277609,135.3658187647462,24.983883,0.1,309.3693,1626728060999
Fix,GT,37.4499471,-122.2778257,135.83877952241895,24.678118,0.1,309.3722,1626728061999
Fix,GT,37.4500882,-122.2780407,136.2448137691021,24.649483,0.1,309.34875,1626728062999
Fix,GT,37.4502295,-122.2782564,136.6148137215376,24.743744,0.1,309.37714,1626728063999
Fix,GT,37.4503714,-122.2784716,137.06260283619164,24.636341,0.1,309.53204,1626728064999
Fix,GT,37.4505132,-122.2786851,137.36588229036332,24.54152,0.1,309.7291,1626728065999
Fix,GT,37.4506547,-122.2788981,137.6198724486828,24.58544,0.1,309.7332,1626728066999
Fix,GT,37.450797,-122.2791125,137.79191167378426,24.761208,0.1,309.48465,1626728067999
Fix,GT,37.4509395,-122.2793291,137.93494110012054,24.93305,0.1,309.4441,1626728068999
Fix,GT,37.4510834,-122.2795468,137.98998036170008,25.10592,0.1,309.68726,1626728069999
Fix,GT,37.4512287,-122.2797652,138.01097053468226,25.225166,0.1,309.7254,1626728070999
Fix,GT,37.451374,-122.279985,138.02799508786202,25.306522,0.1,309.39023,1626728071999
Fix,GT,37.4515194,-122.280206,138.02400982689858,25.402187,0.1,309.36508,1626728072999
Fix,GT,37.4516647,-122.2804286,137.99001965856553,25.50508,0.1,308.93387,1626728073999
Fix,GT,37.4518087,-122.2806527,137.8790688225031,25.422203,0.1,308.6938,1626728074999
Fix,GT,37.4519527,-122.2808765,137.76705408924818,25.46215,0.1,308.93503,1626728075999
Fix,GT,37.452098,-122.2810993,137.58709345066546,25.49941,0.1,309.35748,1626728076999
Fix,GT,37.4522449,-122.2813217,137.32816235232357,25.634087,0.1,309.70367,1626728077999
Fix,GT,37.4523934,-122.2815451,137.05517223358154,25.828377,0.1,309.61023,1626728078999
Fix,GT,37.4525423,-122.2817715,136.70218704402447,26.103687,0.1,309.29623,1626728079999
Fix,GT,37.4526922,-122.282001,136.33418709385396,26.405312,0.1,309.14078,1626728080999
Fix,GT,37.4528439,-122.2822335,135.92623146438598,26.774023,0.1,309.27237,1626728081999
Fix,GT,37.4529983,-122.2824691,135.44025123035908,27.195349,0.1,309.4276,1626728082999
Fix,GT,37.4531558,-122.2827078,134.89128085821866,27.65191,0.1,309.5318,1626728083999
Fix,GT,37.4533164,-122.2829504,134.29431543350222,28.149742,0.1,309.63333,1626728084999
Fix,GT,37.4534799,-122.2831969,133.67528593420982,28.592224,0.1,309.62167,1626728085999
Fix,GT,37.4536453,-122.2834479,133.0473008038998,29.038605,0.1,309.22714,1626728086999
Fix,GT,37.4538122,-122.2837038,132.40233047103882,29.445349,0.1,309.1765,1626728087999
Fix,GT,37.4539808,-122.2839616,131.77536015683415,29.475061,0.1,309.28473,1626728088999
Fix,GT,37.4541487,-122.2842186,131.12732570779323,29.331482,0.1,309.36884,1626728089999
Fix,GT,37.4543171,-122.2844736,130.4722961730957,29.277996,0.1,309.65857,1626728090999
Fix,GT,37.4544858,-122.2847279,129.8283308144808,29.284082,0.1,309.64374,1626728091999
Fix,GT,37.4546548,-122.2849824,129.1713308983445,29.305328,0.1,309.646,1626728092999
Fix,GT,37.4548232,-122.2852375,128.54130628573893,29.315134,0.1,309.3614,1626728093999
Fix,GT,37.4549909,-122.2854938,127.87932612872125,29.353743,0.1,309.21045,1626728094999
Fix,GT,37.4551585,-122.2857508,127.22933609247208,29.411327,0.1,309.19785,1626728095999
Fix,GT,37.455327,-122.2860077,126.55735595703123,29.463495,0.1,309.48,1626728096999
Fix,GT,37.4554962,-122.2862647,125.8723313216567,29.49562,0.1,309.2607,1626728097999
Fix,GT,37.4556648,-122.2865228,125.1383808736205,29.5732,0.1,309.2431,1626728098999
Fix,GT,37.4558349,-122.2867809,124.35237107467653,29.708609,0.1,309.8112,1626728099999
Fix,GT,37.4560085,-122.2870375,123.62234147918224,29.832558,0.1,310.60217,1626728100999
Fix,GT,37.4561864,-122.2872905,123.07621780991552,29.87816,0.1,312.11963,1626728101999
Fix,GT,37.4563707,-122.2875368,122.66315844917295,29.924166,0.1,314.0561,1626728102999
Fix,GT,37.4565629,-122.2877748,122.384084197402,30.045921,0.1,316.38828,1626728103999
Fix,GT,37.456763,-122.2880045,122.22201486229896,30.167797,0.1,318.5159,1626728104999
Fix,GT,37.4569698,-122.2882265,122.17598513394594,30.273474,0.1,320.18716,1626728105999
Fix,GT,37.4571825,-122.2884413,122.27889095342158,30.283974,0.1,321.9792,1626728106999
Fix,GT,37.4573996,-122.2886457,122.50186117839812,30.041124,0.1,324.13254,1626728107999
Fix,GT,37.457621,-122.2888396,122.88976691639424,29.90175,0.1,325.90894,1626728108999
Fix,GT,37.4578465,-122.2890234,123.37875693660976,29.800901,0.1,327.90616,1626728109999
Fix,GT,37.4580761,-122.2891967,123.94569236910344,29.682886,0.1,329.74188,1626728110999
Fix,GT,37.4583085,-122.2893608,124.5407220697403,29.53233,0.1,331.40158,1626728111999
Fix,GT,37.4585438,-122.2895146,125.15366242814063,29.373959,0.1,333.48642,1626728112999
Fix,GT,37.458782,-122.2896566,125.77866730457544,29.194536,0.1,335.5645,1626728113999
Fix,GT,37.4590228,-122.2897874,126.36774172353743,29.065384,0.1,337.3525,1626728114999
Fix,GT,37.4592656,-122.2899084,126.9777118463516,28.944136,0.1,339.22308,1626728115999
Fix,GT,37.4595108,-122.2900187,127.4837465596795,28.886417,0.1,341.1656,1626728116999
Fix,GT,37.4597579,-122.2901191,128.08972163915635,28.793562,0.1,342.74942,1626728117999
Fix,GT,37.4600063,-122.2902106,128.67864698934554,28.660618,0.1,344.25812,1626728118999
Fix,GT,37.4602556,-122.2902929,129.22660213661194,28.584208,0.1,346.38397,1626728119999
Fix,GT,37.460507,-122.2903636,129.9376965528131,28.64569,0.1,348.358,1626728120999
Fix,GT,37.4607614,-122.2904231,130.51673130381107,28.805603,0.1,350.29803,1626728121999
Fix,GT,37.4610187,-122.2904727,131.08768644225597,28.981602,0.1,352.04205,1626728122999
Fix,GT,37.4612787,-122.2905124,131.68071125173572,29.179035,0.1,354.18497,1626728123999
Fix,GT,37.4615412,-122.2905395,132.28068130111694,29.272566,0.1,356.25223,1626728124999
Fix,GT,37.4618045,-122.2905566,133.00663140738013,29.255943,0.1,357.36826,1626728125999
Fix,GT,37.4620678,-122.2905695,133.78760640358928,29.243626,0.1,357.8851,1626728126999
Fix,GT,37.4623312,-122.2905802,134.41068105316162,29.27128,0.1,358.27344,1626728127999
Fix,GT,37.4625952,-122.2905894,134.9977058970332,29.333353,0.1,358.359,1626728128999
Fix,GT,37.4628595,-122.2905982,135.5866759030223,29.377232,0.1,358.3953,1626728129999
Fix,GT,37.4631243,-122.290607,136.19467582166197,29.389791,0.1,358.39856,1626728130999
Fix,GT,37.4633885,-122.2906155,136.8376707516909,29.25089,0.1,358.5993,1626728131999
Fix,GT,37.4636497,-122.2906238,137.61159581631424,28.761457,0.1,358.32144,1626728132999
Fix,GT,37.4639068,-122.2906352,138.37363065314292,28.342312,0.1,357.4941,1626728133999
Fix,GT,37.4641604,-122.2906518,138.92981527805327,28.053818,0.1,356.62024,1626728134999
Fix,GT,37.4644114,-122.2906726,139.30980524426698,27.786276,0.1,355.9228,1626728135999
Fix,GT,37.4646601,-122.2906957,139.69181018817426,27.576801,0.1,355.66135,1626728136999
Fix,GT,37.464907,-122.2907203,140.0658151369095,27.392569,0.1,355.15768,1626728137999
Fix,GT,37.4651519,-122.2907493,140.3868350788355,27.188047,0.1,353.9161,1626728138999
Fix,GT,37.4653942,-122.2907863,140.69087002956866,27.024984,0.1,352.09024,1626728139999
Fix,GT,37.4656352,-122.2908327,140.90198999953267,27.059645,0.1,350.421,1626728140999
Fix,GT,37.4658749,-122.2908857,141.2368599567413,26.970848,0.1,349.836,1626728141999
Fix,GT,37.466114,-122.2909379,141.52512295241468,26.845734,0.1,350.2702,1626728143000
Fix,GT,37.4663505,-122.290989,141.8591623790199,26.39703,0.1,350.0987,1626728144000
Fix,GT,37.4665808,-122.2910412,142.22613832609264,25.476326,0.099,349.29367,1626728145000
Fix,GT,37.4668011,-122.2910975,142.4540300262552,24.391783,0.1,347.6475,1626728146000
Fix,GT,37.4670109,-122.2911579,142.42090826846567,23.31434,0.1,346.56494,1626728147000
Fix,GT,37.4672091,-122.2912205,142.1308243971616,22.038055,0.1,345.31,1626728148000
Fix,GT,37.4673953,-122.291284,141.68266997121506,20.792683,0.1,344.33447,1626728149000
Fix,GT,37.4675702,-122.2913477,141.0748162928326,19.740086,0.1,343.45615,1626728150000
Fix,GT,37.4677361,-122.291412,140.53264279179274,18.786991,0.1,342.1447,1626728151000
Fix,GT,37.4678916,-122.2914794,139.81457609633915,17.71899,0.1,339.9892,1626728152000
Fix,GT,37.4680364,-122.2915479,138.99655426271448,16.584478,0.1,339.00235,1626728153000
Fix,GT,37.468171,-122.2916105,138.15956262059697,15.273274,0.1,340.10455,1626728154000
Fix,GT,37.4682977,-122.2916646,137.31758421860076,14.3341255,0.1,341.92477,1626728155000
Fix,GT,37.4684148,-122.2917097,136.5797117733825,12.709196,0.1,343.29047,1626728156000
Fix,GT,37.4685154,-122.2917466,136.1028179285247,10.582081,0.1,343.4929,1626728157000
Fix,GT,37.4685972,-122.2917791,135.8229240869605,8.386097,0.1,341.5345,1626728158000
Fix,GT,37.4686555,-122.2918095,135.71496862426773,5.605204,0.1,335.4671,1626728159000
Fix,GT,37.4686881,-122.2918327,135.65797611932734,2.7306604,0.099,330.3829,1626728160000
Fix,GT,37.4687011,-122.2918433,135.63499753676123,0.79322,0.099,328.41412,1626728161000
Fix,GT,37.4687026,-122.2918446,135.62299685882684,0.12365905,0.1,328.22437,1626728162000
Fix,GT,37.4687063,-122.2918477,135.6159916184796,0.92733103,0.1,327.75735,1626728163000
Fix,GT,37.4687192,-122.2918589,135.60500446490195,2.6149032,0.1,326.35376,1626728164000
Fix,GT,37.4687441,-122.2918825,135.6400285705249,4.2298903,0.1,322.65863,1626728165000
Fix,GT,37.4687745,-122.2919223,135.79608340024575,5.489062,0.1,311.64893,1626728166000
Fix,GT,37.4687955,-122.2919857,135.9421363943126,6.5380487,0.1,287.34317,1626728167000
Fix,GT,37.4687925,-122.2920663,136.06303004277683,7.6298594,0.1,261.703,1626728168000
Fix,GT,37.4687642,-122.2921516,136.05399408610398,8.754067,0.1,242.83005,1626728169000
Fix,GT,37.4687127,-122.2922387,136.0699992396496,10.380092,0.1,229.57681,1626728170000
Fix,GT,37.4686414,-122.2923266,136.04699852337038,11.68856,0.1,222.81361,1626728171000
Fix,GT,37.4685606,-122.2924203,135.99095631303732,12.741925,0.1,222.66876,1626728172000
Fix,GT,37.4684746,-122.292522,135.81787857105212,13.439548,0.1,223.66037,1626728173000
Fix,GT,37.4683878,-122.2926311,135.525803044091,13.751428,0.1,226.21326,1626728174000
Fix,GT,37.4683058,-122.292748,135.10678841397166,13.775507,0.1,230.03801,1626728175000
Fix,GT,37.4682264,-122.2928656,134.5917103235284,13.456476,0.1,228.31436,1626728176000
Fix,GT,37.4681435,-122.2929712,133.98270605410448,12.60694,0.1,224.06908,1626728177000
Fix,GT,37.4680663,-122.2930668,133.32571086634135,11.545223,0.1,225.44989,1626728178000
Fix,GT,37.4680034,-122.2931628,132.65261478055314,10.303422,0.1,234.17776,1626728179000
Fix,GT,37.4679646,-122.2932601,131.93854447733378,9.166493,0.1,248.98944,1626728180000
Fix,GT,37.4679601,-122.2933613,131.06075992985723,9.240849,0.1,275.42166,1626728181000
Fix,GT,37.4679944,-122.2934572,130.70089007575902,9.839076,0.1,301.13223,1626728182000
Fix,GT,37.468057,-122.2935502,130.6860794924889,11.846377,0.1,313.35388,1626728183000
Fix,GT,37.4681391,-122.2936479,130.7940820413404,13.141065,0.099,317.34198,1626728184000
Fix,GT,37.4682299,-122.2937509,130.89607231460417,14.051461,0.099,317.7278,1626728185000
Fix,GT,37.4683281,-122.2938614,131.24023817414047,15.205794,0.1,317.89752,1626728186000
Fix,GT,37.4684326,-122.2939783,131.7793235734254,15.857031,0.1,318.40503,1626728187000
Fix,GT,37.46854,-122.2940944,132.47936943343285,15.471746,0.1,319.85455,1626728188000
Fix,GT,37.4686477,-122.2941947,133.20339163056855,14.254514,0.1,326.30112,1626728189000
Fix,GT,37.4687568,-122.2942625,133.99741278031468,13.076932,0.1,339.0844,1626728190000
Fix,GT,37.4688687,-122.2942897,134.85544702453817,12.4714575,0.1,355.49744,1626728191000
Fix,GT,37.468979,-122.2942771,135.7194004626386,12.313858,0.1,10.950897,1626728192000
Fix,GT,37.4690832,-122.2942271,136.52643281917366,12.639467,0.1,26.710724,1626728193000
Fix,GT,37.4691752,-122.2941411,137.33240423625148,13.003214,0.1,42.514862,1626728194000
Fix,GT,37.4692477,-122.294024,138.13740702432068,13.2805,0.1,57.982727,1626728195000
Fix,GT,37.4692917,-122.2938864,138.94934605409952,13.126063,0.099,74.606415,1626728196000
Fix,GT,37.4693015,-122.2937391,139.7144023040696,13.236394,0.1,91.780975,1626728197000
Fix,GT,37.4692759,-122.2935927,140.47834759227698,13.463525,0.1,109.023224,1626728198000
Fix,GT,37.4692161,-122.293459,141.15431111564345,13.926182,0.1,125.10742,1626728199000
Fix,GT,37.4691297,-122.2933379,141.75325984998884,14.966293,0.1,134.88464,1626728200000
Fix,GT,37.4690267,-122.2932185,142.28623820575189,16.19537,0.1,138.13971,1626728201000
Fix,GT,37.4689111,-122.2930947,142.74019683599474,17.587856,0.1,140.21872,1626728202000
Fix,GT,37.468782,-122.2929659,143.12709161882012,19.069422,0.1,142.29181,1626728203000
Fix,GT,37.4686388,-122.2928305,143.16395678689702,20.76641,0.099,143.6539,1626728204000
Fix,GT,37.4684818,-122.2926926,143.02792258185755,21.753656,0.1,146.107,1626728205000
Fix,GT,37.4683134,-122.292559,142.85989962374794,22.442026,0.1,148.92969,1626728206000
Fix,GT,37.4681352,-122.2924315,142.64390762256784,23.107695,0.1,151.25803,1626728207000
Fix,GT,37.4679467,-122.2923084,142.4098566516023,24.100958,0.1,153.31396,1626728208000
Fix,GT,37.4677467,-122.2921877,142.23494312194737,25.172659,0.1,155.01562,1626728209000
Fix,GT,37.4675353,-122.2920693,142.01088580159282,26.176043,0.1,156.71796,1626728210000
Fix,GT,37.4673145,-122.2919555,141.71078929946947,26.848698,0.1,158.4237,1626728211000
Fix,GT,37.4670852,-122.2918467,141.4449023687281,27.572798,0.1,159.88794,1626728212000
Fix,GT,37.466848,-122.2917419,141.2148500651121,28.228094,0.1,160.9693,1626728213000
Fix,GT,37.4666052,-122.2916401,140.92591332837472,28.48764,0.1,161.92468,1626728214000
Fix,GT,37.4663613,-122.2915446,140.6518428090587,28.221046,0.1,163.21155,1626728215000
Fix,GT,37.4661183,-122.2914565,140.35387390151993,27.944933,0.1,164.52057,1626728216000
Fix,GT,37.4658758,-122.2913781,140.07193367210402,27.662914,0.099,166.34991,1626728217000
Fix,GT,37.4656339,-122.2913096,139.84085195360333,27.441336,0.1,168.02686,1626728218000
Fix,GT,37.4653912,-122.2912506,139.58280667069184,27.504093,0.1,169.74585,1626728219000
Fix,GT,37.4651454,-122.2911991,139.24578032395758,27.870827,0.1,171.12195,1626728220000
Fix,GT,37.4648948,-122.2911547,138.94886027365553,28.314745,0.1,172.6427,1626728221000
Fix,GT,37.4646394,-122.2911181,138.61679828542657,28.780966,0.1,174.17517,1626728222000
Fix,GT,37.464379,-122.2910895,138.24081610288474,29.238762,0.1,175.56677,1626728223000
Fix,GT,37.4641142,-122.2910682,137.82879813043027,29.657299,0.1,176.85364,1626728224000
Fix,GT,37.4638457,-122.2910538,137.46285627673146,29.974775,0.1,177.94269,1626728225000
Fix,GT,37.4635756,-122.2910437,137.0687782628899,29.924082,0.1,178.28882,1626728226000
Fix,GT,37.463307,-122.2910341,136.5657032589633,29.734129,0.1,178.23792,1626728227000
Fix,GT,37.4630395,-122.2910238,136.02376407772675,29.67532,0.1,178.14429,1626728228000
Fix,GT,37.4627725,-122.2910135,135.45071359429508,29.633331,0.1,178.11945,1626728229000
Fix,GT,37.4625059,-122.2910031,134.9748359824689,29.555075,0.099,178.1272,1626728230000
Fix,GT,37.4622403,-122.2909922,134.6618766026567,29.429224,0.1,178.11633,1626728231000
Fix,GT,37.461976,-122.2909815,134.40789854429477,29.286058,0.1,178.0664,1626728232000
Fix,GT,37.4617129,-122.2909683,134.12280777508764,29.157726,0.1,177.13806,1626728233000
Fix,GT,37.461451,-122.2909466,133.6617396942638,29.094889,0.1,175.21777,1626728234000
Fix,GT,37.4611903,-122.2909133,133.07869337207453,29.076542,0.1,173.14948,1626728235000
Fix,GT,37.4609304,-122.2908711,132.47772419124053,29.074604,0.1,172.14539,1626728236000
Fix,GT,37.4606714,-122.2908225,131.8867390664769,29.041079,0.1,170.61761,1626728237000
Fix,GT,37.4604143,-122.2907632,131.30274059377518,28.99809,0.1,168.42694,1626728238000
Fix,GT,37.4601595,-122.2906923,130.77876714601183,28.921446,0.1,166.61963,1626728239000
Fix,GT,37.4599075,-122.2906118,130.15272871789756,28.788713,0.1,164.70715,1626728240000
Fix,GT,37.4596587,-122.2905203,129.5717617290849,28.767075,0.1,162.63745,1626728241000
Fix,GT,37.4594125,-122.290419,128.9937388889976,28.700138,0.1,161.02124,1626728242000
Fix,GT,37.4591693,-122.2903095,128.4807391320518,28.67205,0.1,159.26434,1626728243000
Fix,GT,37.4589291,-122.2901899,127.9277221580185,28.693855,0.1,157.44366,1626728244000
Fix,GT,37.4586917,-122.2900615,127.35571143840532,28.700905,0.1,155.88348,1626728245000
Fix,GT,37.458457,-122.2899248,126.73468608541648,28.740208,0.1,154.1399,1626728246000
Fix,GT,37.4582256,-122.2897784,126.16070217697136,28.772703,0.1,152.30188,1626728247000
Fix,GT,37.4579979,-122.2896223,125.58274255198891,28.803501,0.1,150.30878,1626728248000
Fix,GT,37.4577741,-122.2894568,125.03773793581873,28.895773,0.1,148.7706,1626728249000
Fix,GT,37.4575521,-122.2892832,124.56078068540246,29.170702,0.1,147.25043,1626728250000
Fix,GT,37.4573322,-122.2891001,124.13885857241787,29.407774,0.1,145.45862,1626728251000
Fix,GT,37.4571155,-122.2889067,123.90586242876576,29.593487,0.1,143.5617,1626728252000
Fix,GT,37.4569031,-122.2887031,123.70589297585936,29.745256,0.1,141.62677,1626728253000
Fix,GT,37.456695,-122.2884901,123.60996470553197,29.857021,0.099,139.79102,1626728254000
Fix,GT,37.456492,-122.2882679,123.61205706833304,29.941975,0.1,137.90497,1626728255000
Fix,GT,37.4562949,-122.2880364,123.7960814754418,29.97366,0.1,135.75684,1626728256000
Fix,GT,37.4561046,-122.287796,124.06318830259704,29.961338,0.1,133.87149,1626728257000
Fix,GT,37.4559205,-122.2875485,124.43922471186332,29.94354,0.1,132.11469,1626728258000
Fix,GT,37.4557422,-122.2872946,124.87720546565532,29.911917,0.1,130.61624,1626728259000
Fix,GT,37.4555687,-122.287036,125.20610868980737,29.913315,0.1,129.64969,1626728260000
Fix,GT,37.4553967,-122.2867755,125.4781559923468,29.93861,0.1,129.48383,1626728261000
Fix,GT,37.4552251,-122.2865145,125.88428203215824,29.916714,0.1,129.42502,1626728262000
Fix,GT,37.4550531,-122.2862535,126.45530865141193,30.036781,0.1,129.45493,1626728263000
Fix,GT,37.4548802,-122.2859915,127.15732195463404,30.16785,0.1,129.63184,1626728264000
Fix,GT,37.4547054,-122.2857284,127.805325621638,30.439108,0.099,129.69275,1626728265000
Fix,GT,37.4545297,-122.2854626,128.4593078491129,30.594175,0.1,129.36243,1626728266000
Fix,GT,37.4543546,-122.2851951,129.1442763616797,30.654886,0.1,129.23462,1626728267000
Fix,GT,37.4541792,-122.2849271,129.84328354018552,30.736769,0.1,129.33258,1626728268000
Fix,GT,37.4540039,-122.2846596,130.48330196234863,30.456173,0.1,129.4585,1626728269000
Fix,GT,37.4538292,-122.2843953,131.12533455432114,30.382143,0.1,129.49072,1626728270000
Fix,GT,37.4536546,-122.2841298,131.8033271830627,30.528822,0.1,129.39368,1626728271000
Fix,GT,37.4534787,-122.2838632,132.4973391053118,30.705544,0.1,129.5409,1626728272000
Fix,GT,37.4533016,-122.2835955,133.19928038456572,30.893414,0.1,129.59387,1626728273000
Fix,GT,37.4531238,-122.2833255,133.84730540310966,31.076878,0.099,129.37909,1626728274000
Fix,GT,37.4529454,-122.2830533,134.43627565784846,31.278389,0.1,129.307,1626728275000
Fix,GT,37.4527663,-122.2827805,134.99724412740022,31.121563,0.099,129.45007,1626728276000
Fix,GT,37.4525885,-122.2825104,135.49222760107972,30.919338,0.1,129.38431,1626728277000
Fix,GT,37.4524116,-122.282241,135.96020705490747,30.876545,0.1,129.29797,1626728278000
Fix,GT,37.452235,-122.2819709,136.33714180027508,30.92468,0.1,129.1911,1626728279000
Fix,GT,37.4520584,-122.2817002,136.68614119899135,30.97883,0.1,129.19708,1626728280000
Fix,GT,37.4518817,-122.2814298,136.93810482883453,30.832563,0.1,129.39453,1626728281000
Fix,GT,37.4517046,-122.2811616,137.15310632992254,30.83956,0.1,129.61304,1626728282000
Fix,GT,37.4515266,-122.280893,137.32906041333266,30.98738,0.1,129.58365,1626728283000
Fix,GT,37.4513482,-122.2806225,137.44205017894507,31.126465,0.1,129.46771,1626728284000
Fix,GT,37.4511694,-122.2803503,137.50400770259088,31.289368,0.1,129.17593,1626728285000
Fix,GT,37.4509911,-122.2800752,137.503031231564,31.4529,0.1,128.94754,1626728286000
Fix,GT,37.4508119,-122.2797984,137.41195377503615,31.6633,0.099,129.01636,1626728287000
Fix,GT,37.4506308,-122.2795202,137.29693877831846,31.896765,0.1,129.27057,1626728288000
Fix,GT,37.4504471,-122.2792413,137.07890047096276,32.133854,0.1,129.6181,1626728289000
Fix,GT,37.4502618,-122.2789605,136.85085196270003,32.299957,0.1,129.44809,1626728290000
Fix,GT,37.450077,-122.2786801,136.51683565876633,32.049076,0.1,129.50952,1626728291000
Fix,GT,37.4498943,-122.2784021,136.08078914281865,31.716993,0.1,129.34174,1626728292000
Fix,GT,37.4497138,-122.2781269,135.67280935134926,31.378447,0.1,129.35474,1626728293000
Fix,GT,37.4495349,-122.2778542,135.1547271774672,31.14498,0.1,129.45087,1626728294000
Fix,GT,37.4493564,-122.2775842,134.64672389600753,30.934916,0.1,129.6842,1626728295000
Fix,GT,37.449178,-122.2773164,134.01869479975105,30.866177,0.1,129.93195,1626728296000
Fix,GT,37.4489988,-122.2770494,133.33365932969144,30.913137,0.1,130.11444,1626728297000
Fix,GT,37.4488185,-122.2767827,132.5616273494754,30.980795,0.1,130.39523,1626728298000
Fix,GT,37.4486359,-122.276517,131.70657134385965,31.076197,0.1,130.90634,1626728299000
Fix,GT,37.4484515,-122.2762521,130.80556984360098,31.148518,0.1,131.16571,1626728300000
Fix,GT,37.4482661,-122.2759876,129.926567921184,31.184225,0.1,131.30441,1626728301000
Fix,GT,37.4480803,-122.2757232,129.03658385857196,31.198444,0.1,131.39264,1626728302000
Fix,GT,37.447894,-122.275459,128.12853878344595,31.21621,0.1,131.354,1626728303000
Fix,GT,37.4477085,-122.275194,127.23353745831176,31.17405,0.1,131.07257,1626728304000
Fix,GT,37.447524,-122.2749285,126.32757122217956,31.166206,0.1,130.89856,1626728305000
Fix,GT,37.4473395,-122.2746628,125.43558227409096,31.212698,0.1,131.08371,1626728306000
Fix,GT,37.4471538,-122.274397,124.5375633927551,31.336187,0.1,131.19785,1626728307000
Fix,GT,37.4469666,-122.2741302,123.6776043620538,31.586,0.1,131.28125,1626728308000
Fix,GT,37.4467775,-122.2738611,122.91465363388882,31.895084,0.1,131.33783,1626728309000
Fix,GT,37.4465865,-122.2735894,122.24173027987686,32.219467,0.1,131.26025,1626728310000
Fix,GT,37.446394,-122.2733144,121.70882947831694,32.464046,0.1,131.29916,1626728311000
Fix,GT,37.4462008,-122.2730403,121.40487505436968,32.32088,0.1,131.5364,1626728312000
Fix,GT,37.4460077,-122.272766,121.158908620961,32.43509,0.1,131.16028,1626728313000
Fix,GT,37.4458168,-122.2724875,121.0068896708563,32.585125,0.1,130.14801,1626728314000
Fix,GT,37.44563,-122.2722036,120.8849530211906,32.450047,0.1,128.63947,1626728315000
Fix,GT,37.4454516,-122.2719151,120.81896987515316,32.174324,0.1,126.77457,1626728316000
Fix,GT,37.4452816,-122.2716223,120.82800813009683,31.929245,0.1,125.17734,1626728317000
Fix,GT,37.4451198,-122.2713265,120.9150619146973,31.535686,0.1,123.49698,1626728318000
Fix,GT,37.4449669,-122.2710278,121.09211914074422,31.303833,0.1,121.70233,1626728319000
Fix,GT,37.4448224,-122.2707253,121.41013475642352,31.105816,0.1,120.05185,1626728320000
Fix,GT,37.4446858,-122.2704197,121.71712644530832,30.906696,0.1,118.404785,1626728321000
Fix,GT,37.4445569,-122.2701113,122.08120038429507,30.688179,0.1,116.87073,1626728322000
Fix,GT,37.4444355,-122.2698011,122.45622900328412,30.481462,0.1,115.34433,1626728323000
Fix,GT,37.444322,-122.2694884,122.746205258857,30.312263,0.1,113.496735,1626728324000
Fix,GT,37.4442166,-122.2691733,123.06419580124924,30.148212,0.1,111.990234,1626728325000
Fix,GT,37.4441186,-122.2688568,123.49313403338893,29.927605,0.1,110.32483,1626728326000
Fix,GT,37.4440283,-122.268539,123.82115313155808,29.785027,0.1,108.738495,1626728327000
Fix,GT,37.443946,-122.2682196,124.16816044639704,29.633135,0.1,107.090515,1626728328000
Fix,GT,37.4438705,-122.2678992,124.51014957151844,29.489342,0.1,105.83099,1626728329000
Fix,GT,37.4438006,-122.2675781,124.85217942044976,29.428337,0.1,104.46829,1626728330000
Fix,GT,37.4437381,-122.2672549,125.20615445239795,29.436012,0.1,102.77527,1626728331000
Fix,GT,37.4436833,-122.2669293,125.53915451805852,29.41767,0.1,101.013275,1626728332000
Fix,GT,37.4436364,-122.2666022,125.86915933092824,29.411312,0.1,99.31525,1626728333000
Fix,GT,37.443597,-122.2662735,126.17213117422722,29.422115,0.1,97.72284,1626728334000
Fix,GT,37.4435647,-122.2659434,126.4611382168075,29.439304,0.1,96.21097,1626728335000
Fix,GT,37.4435389,-122.265612,126.69007066374644,29.471886,0.1,94.852264,1626728336000
Fix,GT,37.4435199,-122.2652798,126.86806596059444,29.471737,0.1,93.29663,1626728337000
Fix,GT,37.4435079,-122.2649469,127.01305877609552,29.507097,0.1,91.71912,1626728338000
Fix,GT,37.4435036,-122.2646133,127.09600834844494,29.561323,0.1,90.106384,1626728339000
Fix,GT,37.4435065,-122.2642786,127.09791118354164,29.653309,0.1,88.51709,1626728340000
Fix,GT,37.4435165,-122.2639432,127.051106724774,29.735954,0.1,87.19263,1626728341000
Fix,GT,37.4435332,-122.2636074,127.0229884593766,29.80859,0.1,85.77429,1626728342000
Fix,GT,37.4435567,-122.2632715,126.98591504739224,29.864172,0.1,83.839325,1626728343000
Fix,GT,37.4435895,-122.2629358,126.73583824885544,29.998144,0.1,82.157074,1626728344000
Fix,GT,37.4436282,-122.2625993,126.41381347086048,30.13217,0.1,81.52762,1626728345000
Fix,GT,37.4436667,-122.2622634,126.07185523423878,29.913246,0.1,82.049286,1626728346000
Fix,GT,37.4437025,-122.2619299,125.73687650780845,29.707142,0.1,82.37753,1626728347000
Fix,GT,37.4437381,-122.2615969,125.48490250408882,29.759933,0.1,82.165344,1626728348000
Fix,GT,37.4437742,-122.2612633,125.2979026526222,29.833725,0.1,82.16116,1626728349000
Fix,GT,37.4438108,-122.2609287,125.1099030302046,29.940998,0.1,81.99042,1626728350000
Fix,GT,37.4438482,-122.2605932,124.93488178446424,30.009438,0.099,81.86908,1626728351000
Fix,GT,37.4438855,-122.2602569,124.69486649721254,30.084267,0.099,82.12308,1626728352000
Fix,GT,37.4439205,-122.2599193,124.364818250251,30.161568,0.099,82.86505,1626728353000
Fix,GT,37.4439521,-122.2595805,123.9447903101798,30.21022,0.1,83.62665,1626728354000
Fix,GT,37.4439774,-122.2592409,123.47479272158256,30.151701,0.1,85.69525,1626728355000
Fix,GT,37.4439927,-122.2589006,122.97473857214672,30.196413,0.1,87.54651,1626728356000
Fix,GT,37.4439997,-122.2585592,122.39870577803114,30.278072,0.1,89.45978,1626728357000
Fix,GT,37.4439965,-122.2582165,121.73366839925012,30.38721,0.1,91.7381,1626728358000
Fix,GT,37.4439838,-122.257873,121.007621485834,30.445137,0.1,93.477905,1626728359000
Fix,GT,37.4439621,-122.2575309,120.20660515570594,30.30756,0.1,95.455475,1626728360000
Fix,GT,37.4439311,-122.2571915,119.33056649250491,30.161604,0.1,97.48389,1626728361000
Fix,GT,37.4438913,-122.256855,118.3965384932128,30.063557,0.1,99.309875,1626728362000
Fix,GT,37.4438425,-122.2565214,117.38851401225196,29.993698,0.1,101.24963,1626728363000
Fix,GT,37.4437852,-122.2561898,116.29550006491226,30.06604,0.1,103.1366,1626728364000
Fix,GT,37.4437192,-122.2558599,115.15944639888406,30.158628,0.1,104.89203,1626728365000
Fix,GT,37.4436441,-122.2555317,113.91941249358932,30.299683,0.1,106.832,1626728366000
Fix,GT,37.4435598,-122.2552052,112.68543266751476,30.458094,0.1,108.95883,1626728367000
Fix,GT,37.4434653,-122.2548809,111.43241304132717,30.669523,0.1,110.95386,1626728368000
Fix,GT,37.4433614,-122.2545584,110.18339809385688,30.894361,0.1,112.80414,1626728369000
Fix,GT,37.4432489,-122.2542379,108.9313879240444,31.109138,0.1,114.59512,1626728370000
Fix,GT,37.4431272,-122.2539202,107.65038927351962,31.31451,0.1,116.533325,1626728371000
Fix,GT,37.4429963,-122.2536055,106.38140728821608,31.503073,0.1,118.46701,1626728372000
Fix,GT,37.4428558,-122.2532952,105.10742057427346,31.670946,0.1,120.67511,1626728373000
Fix,GT,37.4427048,-122.2529906,103.83839272898342,31.821594,0.1,122.96924,1626728374000
Fix,GT,37.4425434,-122.2526924,102.55737938643156,31.971035,0.1,125.23932,1626728375000
Fix,GT,37.4423729,-122.2524011,101.26743749724514,31.98029,0.1,127.21628,1626728376000
Fix,GT,37.442195,-122.2521176,100.06335141085272,31.903063,0.1,129.0556,1626728377000
Fix,GT,37.4420096,-122.2518425,98.75830487370864,31.862087,0.1,131.30817,1626728378000
Fix,GT,37.441817,-122.251576,97.42546536563336,31.780884,0.1,132.88776,1626728379000
Fix,GT,37.4416204,-122.2513161,96.32744595282898,31.63813,0.1,133.82098,1626728380000
Fix,GT,37.441423,-122.2510589,95.10940034969988,31.555298,0.1,133.82272,1626728381000
Fix,GT,37.4412258,-122.2508024,93.85735947007826,31.523232,0.1,133.75684,1626728382000
Fix,GT,37.4410292,-122.2505453,92.57944298594212,31.513222,0.1,133.6687,1626728383000
Fix,GT,37.4408331,-122.2502882,91.38137220439316,31.485657,0.1,133.66235,1626728384000
Fix,GT,37.4406368,-122.2500314,90.1044192363387,31.470871,0.1,133.745,1626728385000
Fix,GT,37.4404404,-122.2497749,88.84736718784366,31.464117,0.1,133.7543,1626728386000
Fix,GT,37.4402442,-122.2495184,87.60543168736807,31.452229,0.1,133.71136,1626728387000
Fix,GT,37.4400482,-122.2492618,86.35445059360518,31.43843,0.1,133.68085,1626728388000
Fix,GT,37.4398524,-122.2490053,85.1744444385767,31.404003,0.1,133.66132,1626728389000
Fix,GT,37.4396558,-122.2487502,83.95732331378198,31.384037,0.1,134.23996,1626728390000
Fix,GT,37.4394574,-122.2484973,82.54635158573835,31.413895,0.1,134.58286,1626728391000
Fix,GT,37.4392581,-122.2482452,81.26842869950691,31.404833,0.1,134.75494,1626728392000
Fix,GT,37.4390581,-122.2479943,80.00739632844878,31.400581,0.1,135.03796,1626728393000
Fix,GT,37.4388572,-122.2477449,78.72744789734762,31.316029,0.1,135.37393,1626728394000
Fix,GT,37.4386568,-122.2474984,77.46533549850062,30.926155,0.1,135.6206,1626728395000
Fix,GT,37.4384592,-122.2472588,76.30544756610598,30.010502,0.1,136.19885,1626728396000
Fix,GT,37.4382644,-122.2470316,75.10233912585723,29.112877,0.1,138.04956,1626728397000
Fix,GT,37.4380684,-122.2468178,73.88844891134184,28.564297,0.1,139.65216,1626728398000
Fix,GT,37.4378729,-122.2466139,72.68745670130244,27.800869,0.1,140.50317,1626728399000
Fix,GT,37.4376822,-122.2464181,71.56642755186557,26.905462,0.1,140.66037,1626728400000
Fix,GT,37.4374975,-122.2462282,70.45646359894144,26.16826,0.099,140.69391,1626728401000
Fix,GT,37.4373169,-122.2460439,69.44355496561155,25.49266,0.1,140.93842,1626728402000
Fix,GT,37.4371411,-122.2458647,68.39353845363391,24.818384,0.1,140.91089,1626728403000
Fix,GT,37.4369706,-122.2456889,67.3745393592529,24.190018,0.1,140.31421,1626728404000
Fix,GT,37.4368051,-122.2455144,66.21445059150365,23.932598,0.1,139.6034,1626728405000
Fix,GT,37.4366416,-122.245337,64.96240504019055,24.055252,0.1,138.7732,1626728406000
Fix,GT,37.4364794,-122.2451583,63.6553668539077,23.77364,0.1,138.57007,1626728407000
Fix,GT,37.4363208,-122.2449827,62.41341074971203,23.17365,0.1,138.45172,1626728408000
Fix,GT,37.4361665,-122.2448115,61.20348988001049,22.630018,0.1,138.38751,1626728409000
Fix,GT,37.436015,-122.2446435,60.03346223652176,22.241747,0.1,138.50653,1626728410000
Fix,GT,37.4358659,-122.2444782,58.97553084551683,21.884024,0.1,138.38275,1626728411000
Fix,GT,37.435721,-122.2443167,58.092697428915656,21.007866,0.1,138.35214,1626728412000
Fix,GT,37.4355854,-122.2441674,57.56480649131117,18.854362,0.1,138.82855,1626728413000
Fix,GT,37.435465,-122.2440356,57.27091204775125,16.555513,0.1,138.96594,1626728414000
Fix,GT,37.4353603,-122.2439214,57.0937673517894,14.239014,0.099,139.07599,1626728415000
Fix,GT,37.4352741,-122.2438217,56.88689479079843,11.708108,0.1,135.42175,1626728416000
Fix,GT,37.4352131,-122.2437284,56.61187576682028,9.752755,0.1,124.41107,1626728417000
Fix,GT,37.4351826,-122.2436323,56.43488398267422,8.886784,0.1,104.91565,1626728418000
Fix,GT,37.4351864,-122.2435327,56.24795979101629,8.764984,0.1,78.40958,1626728419000
Fix,GT,37.4352227,-122.2434407,55.96485988160363,9.543832,0.1,60.097473,1626728420000
Fix,GT,37.4352708,-122.243342,55.63983906053938,10.780133,0.1,58.34723,1626728421000
Fix,GT,37.4353234,-122.2432344,55.27280162532535,11.492105,0.1,58.56079,1626728422000
Fix,GT,37.4353773,-122.2431218,54.88781965908269,11.673474,0.1,59.098694,1626728423000
Fix,GT,37.4354307,-122.243008,54.48485835299361,11.680797,0.1,59.63086,1626728424000
Fix,GT,37.4354827,-122.2428956,54.10980494960211,11.231926,0.1,59.745728,1626728425000
Fix,GT,37.4355324,-122.2427889,53.724811237415295,10.6369,0.1,59.79776,1626728426000
Fix,GT,37.4355784,-122.242691,53.367893370649774,9.155877,0.1,59.330933,1626728427000
Fix,GT,37.4356145,-122.2426138,53.10792166542215,6.6799836,0.1,59.489807,1626728428000
Fix,GT,37.4356399,-122.2425603,52.92294939650595,4.3262897,0.1,59.37039,1626728429000
Fix,GT,37.4356547,-122.2425291,52.80796633640304,2.1765072,0.1,59.19101,1626728430000
Fix,GT,37.4356612,-122.2425163,52.76199205563962,0.60922533,0.1,58.381348,1626728431000
Fix,GT,37.4356626,-122.2425138,52.750999213948845,0.04287239,0.1,58.103638,1626728432000
Fix,GT,37.4356627,-122.2425136,52.74600492752297,0.009411115,0.1,58.065674,1626728433000
Fix,GT,37.4356627,-122.2425136,52.74599418959348,0.0031580108,0.099,58.0643,1626728434000
Fix,GT,37.4356627,-122.2425136,52.74499884561868,0.0010019077,0.099,58.065308,1626728435000
Fix,GT,37.4356627,-122.2425136,52.74499889474129,0.002230377,0.099,58.065643,1626728436000
Fix,GT,37.4356627,-122.2425136,52.74499842807651,0.0009999999,0.099,58.065643,1626728437000
Fix,GT,37.4356627,-122.2425136,52.7450010806974,0.0010000002,0.1,58.06552,1626728438000
Fix,GT,37.4356627,-122.2425136,52.74499958245782,0.001,0.1,58.065308,1626728439000
Fix,GT,37.4356627,-122.2425136,52.74499963158043,0.001,0.1,58.06543,1626728440000
Fix,GT,37.4356627,-122.2425136,52.74499968070304,0.001,0.1,58.06546,1626728441000
Fix,GT,37.4356627,-122.2425136,52.74499918947694,0.001,0.1,58.0654,1626728442000
Fix,GT,37.4356627,-122.2425136,52.744999238599554,0.001,0.1,58.06537,1626728443000
Fix,GT,37.4356627,-122.2425136,52.74499874737346,0.001,0.1,58.065063,1626728444000
Fix,GT,37.4356627,-122.2425136,52.74499879649608,0.0009954083,0.1,58.065125,1626728445000
Fix,GT,37.4356627,-122.2425136,52.74500041754218,0.001,0.1,58.06494,1626728446000
Fix,GT,37.4356627,-122.2425136,52.74499941052869,0.001,0.1,58.065033,1626728447000
Fix,GT,37.4356627,-122.2425136,52.7449989193026,6.487888e-06,0.1,58.065216,1626728448000
Fix,GT,37.4356627,-122.2425136,52.7450005403487,0.0,0.1,58.065063,1626728449000
Fix,GT,37.4356627,-122.2425136,52.74499899298651,0.0009954151,0.099,58.06485,1626728450000
Fix,GT,37.4356627,-122.2425136,52.74499904210912,0.0,0.099,58.064697,1626728451000
