MessageType,Provider,LatitudeDegrees,LongitudeDegrees,AltitudeMeters,SpeedMps,AccuracyMeters,BearingDegrees,UnixTimeMillis
Fix,GT,37.4441042,-122.2327647,10.851,0.001,0.1,30.257294,1626727761999
Fix,GT,37.4441042,-122.2327647,10.851,0.0014142136,0.1,30.257477,1626727762999
Fix,GT,37.4441042,-122.2327647,10.851,0.0022348936,0.1,30.25708,1626727763999
Fix,GT,37.4441042,-122.2327647,10.852,0.010764509,0.1,30.346466,1626727764999
Fix,GT,37.4441031,-122.232766,10.853001436412336,0.38013285,0.1,29.290009,1626727765999
Fix,GT,37.4440998,-122.2327716,10.841002880334852,0.7811221,0.1,21.809845,1626727766999
Fix,GT,37.4440934,-122.2327792,10.82200288772583,1.0410578,0.1,9.887726,1626727767999
Fix,GT,37.4440851,-122.2327853,10.795004342854025,0.8656687,0.1,356.93436,1626727768999
Fix,GT,37.4440802,-122.2327874,10.783,0.21399304,0.1,350.16464,1626727769999
Fix,GT,37.44408,-122.2327876,10.781001455068589,0.021191541,0.1,349.57034,1626727770999
Fix,GT,37.4440838,-122.2327899,10.78,0.95984495,0.1,346.43695,1626727771999
Fix,GT,37.4440945,-122.2328035,10.812995612978936,1.9443791,0.1,327.59232,1626727772999
Fix,GT,37.4441024,-122.2328321,10.796005863666531,2.7642097,0.1,297.45206,1626727773999
Fix,GT,37.4440988,-122.2328721,10.743008816957474,3.6756907,0.1,266.21915,1626727774999
Fix,GT,37.4440786,-122.232911,10.647014731884004,3.992849,0.1,237.07321,1626727775999
Fix,GT,37.4440499,-122.2329362,10.537011815547944,3.1574876,0.1,215.71318,1626727776999
Fix,GT,37.444031,-122.2329477,10.45599851936102,2.0090306,0.1,209.0285,1626727777999
Fix,GT,37.4440129,-122.2329594,10.411004453003407,2.4611735,0.1,207.90158,1626727778999
Fix,GT,37.4439901,-122.2329741,10.32602380657196,3.402001,0.1,207.1855,1626727779999
Fix,GT,37.4439574,-122.2329949,10.25201342445612,4.5414906,0.1,206.95491,1626727780999
Fix,GT,37.4439214,-122.2330187,10.177010467112064,4.369368,0.1,207.93686,1626727781999
Fix,GT,37.4438905,-122.2330435,10.111017987251282,3.7402334,0.1,213.03326,1626727782999
Fix,GT,37.4438691,-122.2330657,10.042012021541597,2.401456,0.1,218.7439,1626727783999
Fix,GT,37.4438573,-122.2330832,9.916016570270063,2.0817676,0.1,226.3565,1626727784999
Fix,GT,37.4438505,-122.2331071,9.766033221840855,2.576655,0.1,244.35568,1626727785999
Fix,GT,37.4438527,-122.2331418,9.722983348429205,3.7439044,0.1,269.31866,1626727786999
Fix,GT,37.4438668,-122.2331899,9.637021243810654,5.5744586,0.1,290.624,1626727787999
Fix,GT,37.4438938,-122.233256,9.444033464431763,7.6104407,0.1,297.25888,1626727788999
Fix,GT,37.4439313,-122.2333383,9.204041169762611,8.982884,0.1,300.6823,1626727789999
Fix,GT,37.4439761,-122.2334299,8.982029041528701,10.038608,0.1,301.56067,1626727790999
Fix,GT,37.4440251,-122.233529,8.698044435441494,10.485156,0.1,301.84232,1626727791999
Fix,GT,37.4440764,-122.2336312,8.394032253742218,10.883975,0.1,302.37936,1626727792999
Fix,GT,37.4441296,-122.2337353,8.182046187639237,10.99959,0.1,302.77414,1626727793999
Fix,GT,37.4441842,-122.2338392,7.955033952236175,10.998333,0.1,303.5476,1626727794999
Fix,GT,37.4442381,-122.2339409,7.7280433154106145,10.464924,0.1,303.34116,1626727795999
Fix,GT,37.444287,-122.2340339,7.53502481174469,9.211404,0.1,303.2887,1626727796999
Fix,GT,37.4443295,-122.2341144,7.350020207583904,7.878632,0.1,303.41882,1626727797999
Fix,GT,37.4443613,-122.2341804,7.211012464523315,5.6040125,0.1,299.72937,1626727798999
Fix,GT,37.44438,-122.2342239,7.110012494087219,3.3374465,0.1,298.49158,1626727799999
Fix,GT,37.4443913,-122.2342499,7.059003130912781,1.9359769,0.1,298.41458,1626727800999
Fix,GT,37.4443964,-122.2342619,7.038001569092274,0.44965473,0.1,298.4216,1626727801999
Fix,GT,37.4443967,-122.2342626,7.026,0.0030114746,0.1,298.4227,1626727802999
Fix,GT,37.4443967,-122.2342626,7.026,0.0031588688,0.1,298.4234,1626727803999
Fix,GT,37.4443967,-122.2342626,7.027,0.0014155123,0.1,298.4231,1626727804999
Fix,GT,37.4443967,-122.2342625,7.027,0.0014142136,0.1,298.42044,1626727805999
Fix,GT,37.4443967,-122.2342625,7.027,0.0010015875,0.1,298.42038,1626727806999
Fix,GT,37.4443967,-122.2342625,7.027,0.0019984087,0.1,298.42047,1626727807999
Fix,GT,37.4443967,-122.2342625,7.027,0.0022340964,0.1,298.42004,1626727808999
Fix,GT,37.4443967,-122.2342625,7.027,0.002236068,0.1,298.42032,1626727809999
Fix,GT,37.4443967,-122.2342625,7.027,0.0009983977,0.1,298.42047,1626727810999
Fix,GT,37.4443967,-122.2342625,7.027998394012451,0.0014142136,0.1,298.4203,1626727811999
Fix,GT,37.4443967,-122.2342625,7.028,0.0014119372,0.1,298.42053,1626727812999
Fix,GT,37.4443968,-122.2342626,7.027001613378525,0.078609236,0.1,298.42157,1626727813999
Fix,GT,37.4444014,-122.234274,6.988006468057632,2.6081228,0.1,297.93127,1626727814999
Fix,GT,37.444416,-122.2343159,6.890022691607475,5.2118607,0.1,293.05182,1626727815999
Fix,GT,37.4444283,-122.2343809,6.968980506420135,6.5166745,0.1,280.78418,1626727816999
Fix,GT,37.4444259,-122.234462,7.08497069311142,7.544449,0.1,262.93192,1626727817999
Fix,GT,37.444399,-122.2345469,7.210008159279823,8.677957,0.1,242.57169,1626727818999
Fix,GT,37.4443438,-122.234627,7.282968923389911,9.81051,0.1,223.76234,1626727819999
Fix,GT,37.4442675,-122.2346963,7.456952460110187,11.182494,0.1,213.42873,1626727820999
Fix,GT,37.4441752,-122.2347681,7.73795399928093,12.866824,0.1,211.12816,1626727821999
Fix,GT,37.4440702,-122.2348428,8.110935783445836,13.880497,0.1,208.4532,1626727822999
Fix,GT,37.4439555,-122.2349181,8.578887785434723,14.871842,0.1,207.03152,1626727823999
Fix,GT,37.4438309,-122.2349982,9.00896030330658,16.205782,0.1,207.02637,1626727824999
Fix,GT,37.4436977,-122.2350841,9.30796021604538,17.108763,0.1,207.18147,1626727825999
Fix,GT,37.4435567,-122.2351763,9.463985047757626,18.175373,0.1,207.63,1626727826999
Fix,GT,37.4434085,-122.2352746,9.573968363940716,18.934065,0.1,207.87296,1626727827999
Fix,GT,37.4432589,-122.2353752,9.76296162009239,18.693964,0.1,208.22198,1626727828999
Fix,GT,37.4431122,-122.2354744,9.947971569418907,18.267282,0.1,208.13063,1626727829999
Fix,GT,37.4429686,-122.2355709,10.220949717521666,18.001064,0.1,208.01453,1626727830999
Fix,GT,37.4428252,-122.2356666,10.572921050429343,18.030893,0.1,207.85167,1626727831999
Fix,GT,37.4426815,-122.2357616,11.19288888680935,18.032612,0.1,207.49568,1626727832999
Fix,GT,37.4425371,-122.2358557,11.920859960019587,18.014467,0.1,207.29718,1626727833999
Fix,GT,37.4423951,-122.2359482,12.921817386627197,17.444008,0.1,207.493,1626727834999
Fix,GT,37.4422587,-122.2360379,13.975828849434851,16.725233,0.1,207.68686,1626727835999
Fix,GT,37.4421286,-122.2361253,14.892848855257034,16.131071,0.1,208.331,1626727836999
Fix,GT,37.4420021,-122.2362122,15.68087916570902,15.99559,0.1,208.75629,1626727837999
Fix,GT,37.4418761,-122.2363001,16.435882314503193,15.988707,0.1,209.07227,1626727838999
Fix,GT,37.4417506,-122.236389,17.14688376879692,16.135231,0.1,209.48515,1626727839999
Fix,GT,37.4416213,-122.2364803,17.799881804525853,16.861153,0.1,209.1021,1626727840999
Fix,GT,37.4414863,-122.2365786,18.56885237121582,17.644215,0.1,211.22293,1626727841999
Fix,GT,37.4413526,-122.236692,19.460836570620533,18.352827,0.1,216.01654,1626727842999
Fix,GT,37.4412202,-122.2368235,20.43684483957291,19.198751,0.1,219.5308,1626727843999
Fix,GT,37.4410887,-122.2369716,21.435808225274084,20.067549,0.1,223.42592,1626727844999
Fix,GT,37.4409602,-122.237137,22.624809553027152,20.808249,0.1,227.482,1626727845999
Fix,GT,37.4408403,-122.237318,23.836783121049404,20.889597,0.1,232.56023,1626727846999
Fix,GT,37.4407312,-122.2375109,25.027786129236222,21.031801,0.1,235.54309,1626727847999
Fix,GT,37.4406263,-122.2377094,26.300801357030867,21.088543,0.1,236.77162,1626727848999
Fix,GT,37.4405217,-122.2379076,27.52178522014617,20.967815,0.1,235.59093,1626727849999
Fix,GT,37.4404109,-122.2380991,28.86480402088165,20.90695,0.1,232.67938,1626727850999
Fix,GT,37.4402942,-122.2382845,30.024826402604575,20.911568,0.1,231.04546,1626727851999
Fix,GT,37.4401741,-122.2384671,31.107822522342204,21.001038,0.1,229.87444,1626727852999
Fix,GT,37.4400496,-122.2386473,32.142827431797976,21.237568,0.1,228.36316,1626727853999
Fix,GT,37.439919,-122.2388247,33.260814723730086,21.375278,0.1,226.12288,1626727854999
Fix,GT,37.4397832,-122.2389955,34.27679134869576,21.286285,0.1,224.15833,1626727855999
Fix,GT,37.4396441,-122.2391603,35.18085470199585,21.144932,0.1,222.37796,1626727856999
Fix,GT,37.4395024,-122.2393145,36.38580645716191,20.440844,0.1,219.41637,1626727857999
Fix,GT,37.4393604,-122.2394571,37.57480072307587,20.0393,0.1,218.49695,1626727858999
Fix,GT,37.4392187,-122.2395943,38.58584666597843,19.69215,0.1,216.7245,1626727859999
Fix,GT,37.4390752,-122.2397235,39.543853494763376,19.539518,0.1,214.81392,1626727860999
Fix,GT,37.4389296,-122.239846,40.41982454621792,19.358198,0.1,212.98235,1626727861999
Fix,GT,37.4387824,-122.239962,41.25486365747452,19.270124,0.1,211.4536,1626727862999
Fix,GT,37.4386321,-122.2400733,41.81892629528046,19.509878,0.1,209.82735,1626727863999
Fix,GT,37.4384767,-122.2401797,42.3069225410223,19.76962,0.1,207.62553,1626727864999
Fix,GT,37.4383162,-122.2402797,42.70094945812225,19.988947,0.1,205.36964,1626727865999
Fix,GT,37.438151,-122.2403733,43.0129565911293,20.24379,0.1,203.54759,1626727866999
Fix,GT,37.4379816,-122.2404623,43.19495831483602,20.495731,0.1,201.8973,1626727867999
Fix,GT,37.4378095,-122.2405466,43.32496367812157,20.473715,0.1,200.64499,1626727868999
Fix,GT,37.4376365,-122.2406271,43.449007279396056,20.509449,0.1,200.17686,1626727869999
Fix,GT,37.4374633,-122.2407091,43.594968999743465,20.595205,0.1,201.06299,1626727870999
Fix,GT,37.437291,-122.2407961,43.874952493309976,20.649418,0.1,202.54942,1626727871999
Fix,GT,37.4371208,-122.2408886,44.309897470951086,20.427269,0.1,204.11133,1626727872999
Fix,GT,37.4369569,-122.2409877,44.83589727067947,19.985895,0.1,207.0472,1626727873999
Fix,GT,37.4368017,-122.2410972,45.42485662448406,19.617233,0.1,211.43407,1626727874999
Fix,GT,37.4366596,-122.2412226,46.17586186176539,19.00413,0.1,217.98694,1626727875999
Fix,GT,37.4365345,-122.2413628,46.92986896675825,18.339647,0.1,224.31651,1626727876999
Fix,GT,37.4364233,-122.241511,47.50388165283203,17.712683,0.1,227.93828,1626727877999
Fix,GT,37.4363216,-122.24166,48.14086474049091,17.004646,0.1,230.03004,1626727878999
Fix,GT,37.4362289,-122.2418061,48.85488489294052,16.020416,0.1,232.5316,1626727879999
Fix,GT,37.4361465,-122.241947,49.48089954590797,14.858154,0.1,234.34055,1626727880999
Fix,GT,37.4360776,-122.2420779,50.0978844383955,12.85163,0.1,238.15578,1626727881999
Fix,GT,37.4360279,-122.242192,50.57792156112195,10.072548,0.1,243.49713,1626727882999
Fix,GT,37.4359993,-122.2422823,50.90594573265314,7.2147107,0.1,250.38855,1626727883999
Fix,GT,37.435986,-122.2423468,51.12696812528372,4.6133094,0.1,256.582,1626727884999
Fix,GT,37.4359809,-122.2423851,51.26098497104645,2.4007378,0.1,260.32983,1626727885999
Fix,GT,37.435979,-122.2424076,51.308988706111904,1.9844114,0.1,262.3821,1626727886999
Fix,GT,37.4359772,-122.2424362,51.35898113930225,3.6117918,0.1,264.85876,1626727887999
Fix,GT,37.4359764,-122.2424913,51.48697921323776,6.0956106,0.1,269.36377,1626727888999
Fix,GT,37.4359813,-122.2425694,51.7279583464861,7.6421547,0.1,275.94147,1626727889999
Fix,GT,37.4359959,-122.2426586,52.13691273629665,8.527154,0.1,283.3863,1626727890999
Fix,GT,37.43602,-122.2427566,52.50692777216434,9.684774,0.1,288.09375,1626727891999
Fix,GT,37.4360508,-122.2428647,52.97389525318145,10.655161,0.1,290.32172,1626727892999
Fix,GT,37.4360881,-122.2429805,53.52289124035836,11.389609,0.1,292.60217,1626727893999
Fix,GT,37.4361306,-122.2431006,54.13487955915927,11.851415,0.1,294.46594,1626727894999
Fix,GT,37.4361767,-122.243222,54.82087741088867,11.7901945,0.1,295.7077,1626727895999
Fix,GT,37.4362225,-122.2433384,55.49187525910138,11.156791,0.1,296.29,1626727896999
Fix,GT,37.4362664,-122.2434494,56.12988078725338,10.906192,0.1,296.38046,1626727897999
Fix,GT,37.4363109,-122.24356,56.73088826406002,11.091094,0.1,296.81888,1626727898999
Fix,GT,37.4363582,-122.2436736,57.37988997989893,11.672286,0.1,297.90204,1626727899999
Fix,GT,37.4364102,-122.2437916,58.089864633083344,12.083765,0.1,299.31467,1626727900999
Fix,GT,37.436466,-122.2439098,58.82185274934768,12.282277,0.1,301.2156,1626727901999
Fix,GT,37.4365272,-122.2440272,59.55186411571503,12.572175,0.1,304.20584,1626727902999
Fix,GT,37.4365943,-122.2441435,60.27185413253307,12.872814,0.1,306.68942,1626727903999
Fix,GT,37.4366666,-122.2442592,61.06584022009373,13.16181,0.1,308.74756,1626727904999
Fix,GT,37.4367439,-122.2443739,61.87183210813999,13.42578,0.1,310.99783,1626727905999
Fix,GT,37.4368256,-122.2444877,62.72483570218086,13.700683,0.1,312.2062,1626727906999
Fix,GT,37.43691,-122.2446027,63.57983147251606,13.942255,0.1,312.67984,1626727907999
Fix,GT,37.4369957,-122.2447194,64.38784686589241,14.175719,0.1,312.38242,1626727908999
Fix,GT,37.4370828,-122.2448394,65.16185247850419,14.561211,0.1,312.08704,1626727909999
Fix,GT,37.4371725,-122.2449632,65.84487387847899,15.033895,0.1,312.31567,1626727910999
Fix,GT,37.4372655,-122.2450904,66.53986969327927,15.543364,0.1,312.62054,1626727911999
Fix,GT,37.4373628,-122.2452218,67.20086945331096,16.195187,0.1,312.79507,1626727912999
Fix,GT,37.437464,-122.2453587,67.88486524605752,16.856012,0.1,312.8382,1626727913999
Fix,GT,37.4375702,-122.2454997,68.59386102402209,17.462994,0.1,313.43494,1626727914999
Fix,GT,37.4376795,-122.2456426,69.31585082894563,17.547102,0.1,313.99142,1626727915999
Fix,GT,37.43779,-122.2457843,70.05784855914118,17.52614,0.1,314.476,1626727916999
Fix,GT,37.4378998,-122.2459261,70.82584428560733,17.457928,0.1,313.46948,1626727917999
Fix,GT,37.4380073,-122.2460725,71.57486400175095,17.814726,0.1,312.07626,1626727918999
Fix,GT,37.4381165,-122.2462236,72.32883770275114,18.41108,0.1,312.2775,1626727919999
Fix,GT,37.4382319,-122.2463788,73.12584543287754,18.986452,0.1,313.42593,1626727920999
Fix,GT,37.4383525,-122.2465349,73.93182101559638,19.568008,0.1,314.50674,1626727921999
Fix,GT,37.4384774,-122.246691,74.76584083896876,19.488573,0.1,315.43768,1626727922999
Fix,GT,37.4386028,-122.2468441,75.52485063898564,19.40404,0.1,315.8317,1626727923999
Fix,GT,37.4387283,-122.2469962,76.28784429925679,19.257812,0.1,315.82602,1626727924999
Fix,GT,37.4388514,-122.2471468,77.04884401470424,19.008686,0.1,315.40082,1626727925999
Fix,GT,37.4389731,-122.2472985,77.80585388183594,19.10529,0.1,314.8991,1626727926999
Fix,GT,37.4390954,-122.2474523,78.5728414170742,19.384628,0.1,314.74185,1626727927999
Fix,GT,37.4392199,-122.2476098,79.35984316563606,19.87707,0.1,314.55594,1626727928999
Fix,GT,37.4393469,-122.2477712,80.16883471906185,20.213697,0.1,314.5237,1626727929999
Fix,GT,37.4394757,-122.2479351,80.97783033627272,20.517986,0.1,314.48392,1626727930999
Fix,GT,37.4396059,-122.2481006,81.79483413004876,20.583551,0.1,314.57602,1626727931999
Fix,GT,37.4397364,-122.2482661,82.61983383554221,20.624475,0.1,314.57977,1626727932999
Fix,GT,37.4398672,-122.2484328,83.43882737088204,20.77328,0.1,314.23953,1626727933999
Fix,GT,37.4399979,-122.2486018,84.27682088404893,20.887156,0.1,313.98672,1626727934999
Fix,GT,37.4401289,-122.2487717,85.14581850004195,20.926043,0.1,313.87994,1626727935999
Fix,GT,37.44026,-122.248943,86.01481611394883,21.12073,0.1,313.60913,1626727936999
Fix,GT,37.4403916,-122.249116,86.86882613420487,21.174416,0.1,313.50522,1626727937999
Fix,GT,37.4405231,-122.2492891,87.71881752967833,21.138857,0.1,313.65616,1626727938999
Fix,GT,37.4406549,-122.2494614,88.56582759058476,21.12274,0.1,313.7801,1626727939999
Fix,GT,37.4407869,-122.2496335,89.39883977395296,21.152714,0.1,313.79266,1626727940999
Fix,GT,37.4409199,-122.2498063,90.23082281297444,21.381691,0.1,313.9818,1626727941999
Fix,GT,37.4410546,-122.2499805,91.08282876849174,21.579958,0.1,314.01184,1626727942999
Fix,GT,37.4411906,-122.250157,91.9378263785243,21.841698,0.1,313.88907,1626727943999
Fix,GT,37.4413281,-122.2503353,92.80881559419632,22.074556,0.1,313.96448,1626727944999
Fix,GT,37.4414669,-122.2505158,93.75679427683356,22.28435,0.1,313.80365,1626727945999
Fix,GT,37.4416065,-122.2506982,94.76478761196137,22.47228,0.1,313.7771,1626727946999
Fix,GT,37.4417471,-122.2508823,95.7987872387171,22.65768,0.1,313.7149,1626727947999
Fix,GT,37.441889,-122.2510678,96.84178053474426,22.813276,0.1,313.83264,1626727948999
Fix,GT,37.442031,-122.2512541,97.89679283404352,22.77299,0.1,313.5455,1626727949999
Fix,GT,37.4421709,-122.2514416,98.87679036015273,22.680748,0.1,312.51965,1626727950999
Fix,GT,37.4423068,-122.2516326,99.81881969207524,22.622087,0.1,311.0417,1626727951999
Fix,GT,37.4424384,-122.2518278,100.71579812830686,22.592865,0.1,309.55374,1626727952999
Fix,GT,37.442566,-122.2520264,101.62881480652096,22.538954,0.1,308.237,1626727953999
Fix,GT,37.4426889,-122.2522287,102.51381023091078,22.468346,0.1,306.52704,1626727954999
Fix,GT,37.442807,-122.2524347,103.400803494215,22.415539,0.1,304.94464,1626727955999
Fix,GT,37.4429205,-122.252644,104.25781385236978,22.36802,0.1,303.52747,1626727956999
Fix,GT,37.4430294,-122.2528563,105.14780710625648,22.320873,0.1,302.10785,1626727957999
Fix,GT,37.443134,-122.2530716,106.0178196554184,22.273268,0.1,300.69537,1626727958999
Fix,GT,37.4432346,-122.2532892,106.8898171943426,22.260414,0.1,299.55078,1626727959999
Fix,GT,37.4433317,-122.2535094,107.75180826812982,22.26276,0.1,298.3641,1626727960999
Fix,GT,37.4434249,-122.2537323,108.63180578124523,22.267385,0.1,296.986,1626727961999
Fix,GT,37.4435136,-122.2539581,109.51980329239368,22.263992,0.1,295.54907,1626727962999
Fix,GT,37.4435977,-122.2541862,110.40280945730213,22.169237,0.1,294.18945,1626727963999
Fix,GT,37.443677,-122.2544156,111.27680913209916,22.063972,0.1,292.72003,1626727964999
Fix,GT,37.4437512,-122.2546462,112.13681315219402,21.987768,0.1,291.2472,1626727965999
Fix,GT,37.4438207,-122.2548793,112.99880848169326,21.977999,0.1,289.83707,1626727966999
Fix,GT,37.4438853,-122.2551115,113.84281906163692,21.55133,0.1,288.6962,1626727967999
Fix,GT,37.4439456,-122.2553429,114.7088078365326,21.559864,0.1,287.57068,1626727968999
Fix,GT,37.4440021,-122.2555759,115.54682501029968,21.511257,0.1,286.31287,1626727969999
Fix,GT,37.4440541,-122.2558096,116.40081815135478,21.418339,0.1,284.91446,1626727970999
Fix,GT,37.4441012,-122.2560437,117.24381345534326,21.320538,0.1,283.50836,1626727971999
Fix,GT,37.4441437,-122.2562784,118.05081973624227,21.237383,0.1,282.1156,1626727972999
Fix,GT,37.4441815,-122.2565133,118.8418392558694,21.163294,0.1,280.83115,1626727973999
Fix,GT,37.444215,-122.2567484,119.56684119176865,21.096104,0.1,279.63892,1626727974999
Fix,GT,37.444245,-122.2569836,120.25084755378964,21.06735,0.1,278.54175,1626727975999
Fix,GT,37.444271,-122.2572196,120.91485837173462,21.088017,0.1,277.26312,1626727976999
Fix,GT,37.4442924,-122.2574563,121.54986035186052,21.07104,0.1,275.81323,1626727977999
Fix,GT,37.4443091,-122.2576936,122.16786455971004,21.07506,0.1,274.35522,1626727978999
Fix,GT,37.4443211,-122.2579316,122.72287767845393,21.128168,0.1,272.9841,1626727979999
Fix,GT,37.4443286,-122.2581706,123.24188861680032,21.188112,0.1,271.6588,1626727980999
Fix,GT,37.4443321,-122.2584105,123.7398995888233,21.259884,0.1,270.404,1626727981999
Fix,GT,37.4443309,-122.2586514,124.20789942252637,21.38337,0.1,268.98337,1626727982999
Fix,GT,37.4443249,-122.2588939,124.61091717064382,21.552053,0.1,267.59198,1626727983999
Fix,GT,37.4443147,-122.2591384,124.95993721485137,21.760284,0.1,266.44473,1626727984999
Fix,GT,37.4443007,-122.2593851,125.23294609546664,22.013687,0.1,265.4145,1626727985999
Fix,GT,37.4442831,-122.2596347,125.46794825786353,22.364218,0.1,264.48685,1626727986999
Fix,GT,37.444263,-122.2598887,125.66795718741416,22.753761,0.1,264.25238,1626727987999
Fix,GT,37.4442429,-122.2601459,125.82097517311573,22.981668,0.1,264.36252,1626727988999
Fix,GT,37.4442227,-122.2604057,125.93997287249564,23.22891,0.1,264.30365,1626727989999
Fix,GT,37.4442018,-122.2606694,126.0229728281498,23.689833,0.1,264.14682,1626727990999
Fix,GT,37.4441802,-122.2609364,126.14196597975491,23.660212,0.1,264.11258,1626727991999
Fix,GT,37.4441585,-122.2612006,126.29795229530336,23.33023,0.1,263.99005,1626727992999
Fix,GT,37.4441368,-122.2614607,126.4749613201022,22.955313,0.1,263.89822,1626727993999
Fix,GT,37.4441152,-122.2617165,126.64995669931174,22.581741,0.1,263.8907,1626727994999
Fix,GT,37.4440947,-122.2619684,126.7559703259468,22.22673,0.1,264.2235,1626727995999
Fix,GT,37.4440752,-122.2622163,126.9049748505354,21.868238,0.1,264.27496,1626727996999
Fix,GT,37.4440561,-122.2624602,127.02797022986412,21.518757,0.1,264.28772,1626727997999
Fix,GT,37.4440376,-122.2627004,127.12398394489288,21.182655,0.1,264.53204,1626727998999
Fix,GT,37.4440201,-122.2629369,127.17698391902448,20.864218,0.1,264.7044,1626727999999
Fix,GT,37.4440033,-122.2631699,127.2759677863121,20.537214,0.1,264.71008,1626728000999
Fix,GT,37.4439865,-122.2633992,127.3729769538641,20.220627,0.1,264.5357,1626728001999
Fix,GT,37.443969,-122.2636252,127.43399538338184,19.970037,0.1,264.30713,1626728002999
Fix,GT,37.443952,-122.263848,127.50498843997715,19.743181,0.1,264.55786,1626728003999
Fix,GT,37.4439365,-122.2640718,127.54399305325748,20.09765,0.1,265.2735,1626728004999
Fix,GT,37.443924,-122.2643007,127.54700927710532,20.522263,0.1,266.70007,1626728005999
Fix,GT,37.4439169,-122.2645347,127.51900696891546,20.944952,0.1,268.5376,1626728006999
Fix,GT,37.4439142,-122.2647728,127.5040023266673,21.11068,0.1,269.53516,1626728007999
Fix,GT,37.4439153,-122.2650123,127.43601398181916,21.368752,0.1,270.73206,1626728008999
Fix,GT,37.4439202,-122.265256,127.35902100545168,21.797632,0.1,271.8246,1626728009999
Fix,GT,37.4439289,-122.2655045,127.24002805089953,22.233349,0.1,272.9746,1626728010999
Fix,GT,37.4439425,-122.2657574,127.09803277778624,22.64439,0.1,274.4068,1626728011999
Fix,GT,37.4439615,-122.2660144,126.90203751945496,23.066324,0.1,275.82312,1626728012999
Fix,GT,37.4439857,-122.2662758,126.679061065197,23.523832,0.1,277.1838,1626728013999
Fix,GT,37.4440155,-122.2665417,126.38306821662188,24.058493,0.1,278.45227,1626728014999
Fix,GT,37.4440504,-122.2668136,126.07808245766162,24.664827,0.1,279.51395,1626728015999
Fix,GT,37.4440904,-122.2670906,125.73207786774636,25.158903,0.1,280.7834,1626728016999
Fix,GT,37.4441365,-122.2673713,125.38508744078877,25.572865,0.1,282.33643,1626728017999
Fix,GT,37.44419,-122.2676541,125.02207574272155,25.824465,0.1,284.14575,1626728018999
Fix,GT,37.4442505,-122.2679352,124.66707585716247,25.69622,0.1,285.78772,1626728019999
Fix,GT,37.4443167,-122.2682122,124.28210209196806,25.50628,0.1,287.30652,1626728020999
Fix,GT,37.4443882,-122.268485,123.91708798331022,25.319986,0.1,288.83478,1626728021999
Fix,GT,37.4444648,-122.2687532,123.54309288328886,25.129389,0.1,290.30096,1626728022999
Fix,GT,37.4445462,-122.269017,123.17609063982964,24.98198,0.1,291.77176,1626728023999
Fix,GT,37.444633,-122.2692782,122.74413139247896,25.17166,0.1,293.19785,1626728024999
Fix,GT,37.4447253,-122.2695399,122.34309330868722,25.469015,0.1,294.2286,1626728025999
Fix,GT,37.4448225,-122.2698015,122.01409584903716,25.609934,0.1,295.4774,1626728026999
Fix,GT,37.4449249,-122.270062,121.6580959968567,25.790861,0.1,296.77942,1626728027999
Fix,GT,37.4450328,-122.2703213,121.34409854340552,25.991375,0.1,298.10873,1626728028999
Fix,GT,37.4451468,-122.2705791,121.02506740140916,26.188925,0.1,299.73636,1626728029999
Fix,GT,37.445268,-122.2708338,120.78005062866212,26.314901,0.1,301.4796,1626728030999
Fix,GT,37.4453951,-122.2710859,120.61203863334656,26.466204,0.1,303.006,1626728031999
Fix,GT,37.4455286,-122.2713345,120.49502901864052,26.60953,0.1,304.68515,1626728032999
Fix,GT,37.4456686,-122.2715794,120.41898789072036,26.727625,0.1,306.36,1626728033999
Fix,GT,37.4458146,-122.2718202,120.43698059606552,26.809294,0.1,307.79694,1626728034999
Fix,GT,37.445965,-122.2720573,120.57193441194296,26.849737,0.1,309.03925,1626728035999
Fix,GT,37.4461198,-122.2722905,120.79293917942049,26.834976,0.1,310.23074,1626728036999
Fix,GT,37.4462774,-122.2725196,121.05793421560529,26.76043,0.1,311.13208,1626728037999
Fix,GT,37.4464361,-122.272747,121.40891215443612,26.697813,0.1,311.0017,1626728038999
Fix,GT,37.4465941,-122.2729738,121.77991202139854,26.62675,0.1,311.08066,1626728039999
Fix,GT,37.446752,-122.2731997,122.15489476066828,26.548882,0.1,311.15897,1626728040999
Fix,GT,37.4469097,-122.2734247,122.61687744390964,26.45385,0.1,311.243,1626728041999
Fix,GT,37.4470666,-122.2736488,123.13288462358712,26.327354,0.1,311.11035,1626728042999
Fix,GT,37.4472222,-122.2738724,123.68985495126248,26.191673,0.1,310.9174,1626728043999
Fix,GT,37.4473768,-122.2740949,124.31883749818802,26.048706,0.1,311.04236,1626728044999
Fix,GT,37.447531,-122.2743159,125.00882246351242,25.913975,0.1,311.1219,1626728045999
Fix,GT,37.4476844,-122.2745354,125.73481479346752,25.776184,0.1,311.16293,1626728046999
Fix,GT,37.4478372,-122.2747539,126.44781451630593,25.65136,0.1,311.18024,1626728047999
Fix,GT,37.4479893,-122.2749712,127.18081176233292,25.503805,0.1,311.1806,1626728048999
Fix,GT,37.4481407,-122.2751871,127.91782140350342,25.435453,0.1,311.30142,1626728049999
Fix,GT,37.4482924,-122.2754029,128.67580872559546,25.474323,0.1,311.31464,1626728050999
Fix,GT,37.4484451,-122.2756186,129.4028208799362,25.63083,0.1,311.6722,1626728051999
Fix,GT,37.4485999,-122.2758353,130.11380566966534,25.850332,0.1,311.7754,1626728052999
Fix,GT,37.4487558,-122.2760534,130.84782285141944,25.978554,0.1,311.70947,1626728053999
Fix,GT,37.448911,-122.2762728,131.591817591548,25.893667,0.1,311.01093,1626728054999
Fix,GT,37.4490632,-122.2764939,132.3298198285103,25.825924,0.1,310.39008,1626728055999
Fix,GT,37.4492135,-122.2767169,133.0288345988989,25.878347,0.1,309.8347,1626728056999
Fix,GT,37.4493637,-122.2769415,133.714841884315,25.996979,0.1,309.89404,1626728057999
Fix,GT,37.4495141,-122.2771663,134.3638441723585,25.809605,0.1,309.94604,1626728058999
Fix,GT,37.4496619,-122.2773883,134.93587163072826,25.378513,0.1,309.51654,1626728059999
Fix,GT,37.4498061,-122.2776079,135.36590673702955,24.983774,0.1,309.3693,1626728060999
Fix,GT,37.4499481,-122.2778246,135.838886405766,24.678051,0.1,309.37225,1626728061999
Fix,GT,37.4500892,-122.2780396,136.24490393555166,24.649492,0.1,309.34875,1626728062999
Fix,GT,37.4502305,-122.2782553,136.6149037951231,24.743736,0.1,309.37717,1626728063999
Fix,GT,37.4503724,-122.2784705,137.06279464203118,24.63634,0.1,309.53207,1626728064999
Fix,GT,37.4505142,-122.278684,137.36593906450273,24.541494,0.1,309.7291,1626728065999
Fix,GT,37.4506557,-122.278897,137.61993389356135,24.585476,0.1,309.7332,1626728066999
Fix,GT,37.4507981,-122.2791114,137.79195416748524,24.76124,0.1,309.4846,1626728067999
Fix,GT,37.4509406,-122.279328,137.9349694006443,24.933092,0.1,309.44415,1626728068999
Fix,GT,37.4510844,-122.2795457,137.98998978567124,25.105955,0.1,309.68732,1626728069999
Fix,GT,37.4512297,-122.2797641,138.01098465669153,25.22519,0.1,309.72537,1626728070999
Fix,GT,37.451375,-122.2799839,138.02799743914602,25.30654,0.1,309.39023,1626728071999
Fix,GT,37.4515204,-122.2802049,138.0240051290989,25.402208,0.1,309.36502,1626728072999
Fix,GT,37.4516657,-122.2804275,137.99001027297976,25.50511,0.1,308.93375,1626728073999
Fix,GT,37.4518097,-122.2806517,137.87903600549697,25.422192,0.1,308.6938,1626728074999
Fix,GT,37.4519537,-122.2808754,137.7670283306837,25.462162,0.1,308.93512,1626728075999
Fix,GT,37.452099,-122.2810982,137.58704900503156,25.499428,0.1,309.35754,1626728076999
Fix,GT,37.4522459,-122.2813206,137.32808523595332,25.634113,0.1,309.70374,1626728077999
Fix,GT,37.4523944,-122.281544,137.05509052693844,25.82844,0.1,309.61014,1626728078999
Fix,GT,37.4525433,-122.2817704,136.70209842681885,26.103739,0.1,309.29617,1626728079999
Fix,GT,37.4526933,-122.2819999,136.3340985649824,26.405384,0.1,309.14078,1626728080999
Fix,GT,37.4528449,-122.2822325,135.92612208020685,26.774105,0.1,309.2724,1626728081999
Fix,GT,37.4529993,-122.282468,135.4401326584816,27.195448,0.1,309.42767,1626728082999
Fix,GT,37.4531568,-122.2827067,134.8911484726071,27.652029,0.1,309.53183,1626728083999
Fix,GT,37.4533174,-122.2829493,134.29416694259643,28.149845,0.1,309.63336,1626728084999
Fix,GT,37.4534809,-122.2831958,133.67515149915218,28.59232,0.1,309.62164,1626728085999
Fix,GT,37.4536463,-122.2834468,133.04715956074,29.038713,0.1,309.22708,1626728086999
Fix,GT,37.4538132,-122.2837027,132.4021755028367,29.445421,0.1,309.17657,1626728087999
Fix,GT,37.4539818,-122.2839605,131.77519148057698,29.47501,0.1,309.28467,1626728088999
Fix,GT,37.4541497,-122.2842175,131.12717336332798,29.33144,0.1,309.36896,1626728089999
Fix,GT,37.4543181,-122.2844725,130.47215782475473,29.277987,0.1,309.6586,1626728090999
Fix,GT,37.4544868,-122.2847268,129.82817647725346,29.284088,0.1,309.64374,1626728091999
Fix,GT,37.4546558,-122.2849813,129.17117672485114,29.305336,0.1,309.646,1626728092999
Fix,GT,37.4548242,-122.2852364,128.54116376554967,29.315136,0.1,309.36133,1626728093999
Fix,GT,37.4549919,-122.2854927,127.8791745671034,29.353743,0.1,309.21042,1626728094999
Fix,GT,37.4551595,-122.2857497,127.2291801083088,29.411346,0.1,309.19785,1626728095999
Fix,GT,37.4553281,-122.2860066,126.55719096899033,29.463493,0.1,309.47998,1626728096999
Fix,GT,37.4554972,-122.2862636,125.87217795085908,29.495628,0.1,309.2606,1626728097999
Fix,GT,37.4556658,-122.2865217,125.1382047906518,29.573233,0.1,309.24313,1626728098999
Fix,GT,37.455836,-122.2867798,124.35219974410536,29.708632,0.1,309.81137,1626728099999
Fix,GT,37.4560095,-122.2870364,123.6221840195656,29.83258,0.1,310.6024,1626728100999
Fix,GT,37.4561874,-122.2872894,123.0761175057888,29.878159,0.1,312.12,1626728101999
Fix,GT,37.4563715,-122.2875356,122.66308557510376,29.924185,0.1,314.0566,1626728102999
Fix,GT,37.4565637,-122.2877736,122.38404552459716,30.04595,0.1,316.38867,1626728103999
Fix,GT,37.4567637,-122.2880033,122.22200804448129,30.167841,0.1,318.51633,1626728104999
Fix,GT,37.4569705,-122.2882252,122.17599194443228,30.273487,0.1,320.1876,1626728105999
Fix,GT,37.4571832,-122.28844,122.27894084453582,30.283901,0.1,321.97964,1626728106999
Fix,GT,37.4574003,-122.2886444,122.50192460775376,30.041094,0.1,324.13293,1626728107999
Fix,GT,37.4576216,-122.2888382,122.88987328064442,29.901726,0.1,325.90933,1626728108999
Fix,GT,37.4578471,-122.2890221,123.37886770725252,29.800875,0.1,327.90662,1626728109999
Fix,GT,37.4580766,-122.2891954,123.94583238005636,29.682856,0.1,329.74225,1626728110999
Fix,GT,37.458309,-122.2893595,124.54084839773178,29.532305,0.1,331.402,1626728111999
Fix,GT,37.4585443,-122.2895132,125.15381566023828,29.373938,0.1,333.48688,1626728112999
Fix,GT,37.4587825,-122.2896552,125.77881813150644,29.194494,0.1,335.565,1626728113999
Fix,GT,37.4590232,-122.289786,126.36785865616798,29.06536,0.1,337.35284,1626728114999
Fix,GT,37.459266,-122.2899069,126.97784213638306,28.944107,0.1,339.2235,1626728115999
Fix,GT,37.4595111,-122.2900173,127.48386100345849,28.886402,0.1,341.166,1626728116999
Fix,GT,37.4597582,-122.2901175,128.08984716939926,28.793541,0.1,342.74973,1626728117999
Fix,GT,37.4600065,-122.2902091,128.67880597025157,28.660595,0.1,344.25842,1626728118999
Fix,GT,37.4602558,-122.2902913,129.22678108882906,28.584192,0.1,346.38452,1626728119999
Fix,GT,37.4605072,-122.2903621,129.93783285480737,28.645716,0.1,348.35852,1626728120999
Fix,GT,37.4607615,-122.2904216,130.5168518422842,28.805637,0.1,350.29846,1626728121999
Fix,GT,37.4610188,-122.2904711,131.0878269165158,28.981647,0.1,352.0424,1626728122999
Fix,GT,37.4612788,-122.2905108,131.680840438962,29.179068,0.1,354.18558,1626728123999
Fix,GT,37.4615412,-122.2905379,132.28082369613648,29.272566,0.1,356.25272,1626728124999
Fix,GT,37.4618045,-122.290555,133.00679588401317,29.255936,0.1,357.36835,1626728125999
Fix,GT,37.4620678,-122.2905679,133.7877818004489,29.243631,0.1,357.88513,1626728126999
Fix,GT,37.4623312,-122.2905786,134.4108230018616,29.271282,0.1,358.27347,1626728127999
Fix,GT,37.4625952,-122.2905878,134.99783661180734,29.333363,0.1,358.35898,1626728128999
Fix,GT,37.4628595,-122.2905966,135.58681975585222,29.377253,0.1,358.3953,1626728129999
Fix,GT,37.4631243,-122.2906054,136.1948195233941,29.389788,0.1,358.39856,1626728130999
Fix,GT,37.4633885,-122.2906139,136.83781650292872,29.250822,0.1,358.59937,1626728131999
Fix,GT,37.4636497,-122.2906222,137.61177450454235,28.761349,0.1,358.32132,1626728132999
Fix,GT,37.4639068,-122.2906336,138.37379372274876,28.342226,0.1,357.49387,1626728133999
Fix,GT,37.4641604,-122.2906502,138.92989672464134,28.05376,0.1,356.6201,1626728134999
Fix,GT,37.4644114,-122.290671,139.30989100039005,27.786219,0.1,355.92267,1626728135999
Fix,GT,37.4646601,-122.2906941,139.6918936548233,27.57676,0.1,355.66132,1626728136999
Fix,GT,37.4649071,-122.2907187,140.0658963210583,27.392525,0.1,355.1575,1626728137999
Fix,GT,37.465152,-122.2907477,140.38690740764142,27.188004,0.1,353.91574,1626728138999
Fix,GT,37.4653943,-122.2907847,140.69092695236208,27.024971,0.1,352.08984,1626728139999
Fix,GT,37.4656353,-122.2908311,140.90199437379837,27.059624,0.1,350.4206,1626728140999
Fix,GT,37.465875,-122.2908841,141.23692112970352,26.970825,0.1,349.836,1626728141999
Fix,GT,37.4661139,-122.2909363,141.5249153852463,26.845997,0.1,350.27026,1626728142999
Fix,GT,37.4663504,-122.2909875,141.85889550948144,26.397491,0.1,350.0989,1626728143999
Fix,GT,37.4665808,-122.2910396,142.225852956295,25.47716,0.1,349.29465,1626728144999
Fix,GT,37.4668011,-122.2910959,142.45394903588297,24.39259,0.1,347.64865,1626728145999
Fix,GT,37.4670109,-122.2911563,142.4210226802826,23.315283,0.1,346.56607,1626728146999
Fix,GT,37.4672091,-122.2912189,142.13108232319354,22.039116,0.1,345.31067,1626728147999
Fix,GT,37.4673953,-122.2912824,141.68318474996087,20.793655,0.1,344.33536,1626728148999
Fix,GT,37.4675704,-122.2913462,141.07512522411346,19.740757,0.1,343.45667,1626728149999
Fix,GT,37.4677363,-122.2914105,140.53323652493953,18.78779,0.1,342.14627,1626728150999
Fix,GT,37.4678919,-122.2914779,139.81524823486802,17.719784,0.1,339.99075,1626728151999
Fix,GT,37.4680367,-122.2915463,138.99723427152634,16.585476,0.1,339.00204,1626728152999
Fix,GT,37.4681712,-122.291609,138.16025458860398,15.274019,0.1,340.10327,1626728153999
Fix,GT,37.4682979,-122.2916631,137.31822913932805,14.335116,0.1,341.9232,1626728154999
Fix,GT,37.468415,-122.2917082,136.58016920125488,12.710857,0.1,343.28983,1626728155999
Fix,GT,37.4685157,-122.2917451,136.10310624599458,10.583804,0.1,343.49384,1626728156999
Fix,GT,37.4685975,-122.2917776,135.8230460033417,8.388174,0.1,341.5372,1626728157999
Fix,GT,37.468656,-122.291808,135.71501439452172,5.607494,0.1,335.47238,1626728158999
Fix,GT,37.4686886,-122.2918313,135.65801152992248,2.7325609,0.1,330.38562,1626728159999
Fix,GT,37.4687017,-122.2918419,135.63500288617612,0.7945358,0.1,328.4147,1626728160999
Fix,GT,37.4687032,-122.2918432,135.623,0.12313361,0.1,328.22446,1626728161999
Fix,GT,37.4687069,-122.2918463,135.61600578689576,0.92633474,0.1,327.75803,1626728162999
Fix,GT,37.4687198,-122.2918575,135.60499710285663,2.6135101,0.1,326.35532,1626728163999
Fix,GT,37.4687448,-122.2918812,135.63999419856071,4.228865,0.1,322.6637,1626728164999
Fix,GT,37.4687754,-122.2919212,135.79594481611252,5.4880333,0.1,311.66345,1626728165999
Fix,GT,37.4687967,-122.2919851,135.94191566824912,6.5372176,0.1,287.36505,1626728166999
Fix,GT,37.4687938,-122.2920664,136.06298252987858,7.6291814,0.1,261.72113,1626728167999
Fix,GT,37.4687654,-122.2921523,136.05400291538237,8.752933,0.1,242.84232,1626728168999
Fix,GT,37.4687137,-122.2922397,136.07,10.378875,0.1,229.58543,1626728169999
Fix,GT,37.4686423,-122.2923276,136.0470175359249,11.687675,0.1,222.81471,1626728170999
Fix,GT,37.4685615,-122.2924214,135.9910263360739,12.741236,0.1,222.6686,1626728171999
Fix,GT,37.4684755,-122.2925229,135.81807324814798,13.439031,0.1,223.65903,1626728172999
Fix,GT,37.4683888,-122.2926321,135.52611441123486,13.751252,0.1,226.21057,1626728173999
Fix,GT,37.4683068,-122.2927488,135.1071174902916,13.775682,0.1,230.0365,1626728174999
Fix,GT,37.4682274,-122.2928665,134.592152926445,13.456799,0.1,228.31874,1626728175999
Fix,GT,37.4681444,-122.2929723,133.9831972874403,12.607861,0.1,224.06996,1626728176999
Fix,GT,37.4680673,-122.2930678,133.32617394173144,11.545876,0.1,225.44623,1626728177999
Fix,GT,37.4680044,-122.2931636,132.6532450044155,10.304733,0.1,234.1688,1626728178999
Fix,GT,37.4679658,-122.2932605,131.93925121212004,9.167304,0.1,248.97244,1626728179999
Fix,GT,37.4679613,-122.293361,131.0611568340063,9.2407055,0.1,275.39917,1626728180999
Fix,GT,37.4679954,-122.2934563,130.701056291461,9.837939,0.1,301.11884,1626728181999
Fix,GT,37.4680578,-122.293549,130.6859703359604,11.844764,0.1,313.34766,1626728182999
Fix,GT,37.4681399,-122.2936467,130.79394951033592,13.140391,0.1,317.3409,1626728183999
Fix,GT,37.4682307,-122.2937495,130.8959821579456,14.050635,0.1,317.7274,1626728184999
Fix,GT,37.4683288,-122.29386,131.23987495040893,15.205026,0.1,317.89746,1626728185999
Fix,GT,37.4684333,-122.2939769,131.77881518125534,15.856807,0.1,318.40463,1626728186999
Fix,GT,37.4685407,-122.294093,132.4787791364193,15.472433,0.1,319.85138,1626728187999
Fix,GT,37.4686482,-122.2941933,133.20276392126084,14.255685,0.1,326.2934,1626728188999
Fix,GT,37.4687571,-122.294261,133.99673970341684,13.077556,0.1,339.07248,1626728189999
Fix,GT,37.4688686,-122.2942882,134.85472140824794,12.471721,0.1,355.48477,1626728190999
Fix,GT,37.4689786,-122.2942756,135.71876006507873,12.313821,0.1,10.938232,1626728191999
Fix,GT,37.4690824,-122.2942258,136.52574475502968,12.639161,0.1,26.69809,1626728192999
Fix,GT,37.4691743,-122.29414,137.3317624897957,13.002928,0.1,42.502594,1626728193999
Fix,GT,37.4692466,-122.2940233,138.13675316739082,13.280558,0.1,57.97003,1626728194999
Fix,GT,37.4692904,-122.2938862,138.94877697956562,13.126084,0.1,74.592896,1626728195999
Fix,GT,37.4693003,-122.2937394,139.7137646408081,13.236241,0.1,91.76727,1626728196999
Fix,GT,37.4692748,-122.2935935,140.47778550040724,13.46332,0.1,109.00946,1626728197999
Fix,GT,37.4692151,-122.2934601,141.15380036997794,13.925477,0.1,125.096436,1626728198999
Fix,GT,37.4691289,-122.2933392,141.75283646678923,14.965357,0.1,134.88016,1626728199999
Fix,GT,37.469026,-122.2932199,142.28583323842287,16.194311,0.1,138.13824,1626728200999
Fix,GT,37.4689105,-122.2930961,142.73987857341768,17.586695,0.1,140.21759,1626728201999
Fix,GT,37.4687814,-122.2929673,143.12692097818854,19.06813,0.1,142.29114,1626728202999
Fix,GT,37.4686382,-122.292832,143.16401825761795,20.765257,0.1,143.65225,1626728203999
Fix,GT,37.4684812,-122.2926941,143.0280426520109,21.753029,0.1,146.10489,1626728204999
Fix,GT,37.468313,-122.2925605,142.86006100535394,22.441462,0.1,148.92749,1626728205999
Fix,GT,37.4681348,-122.292433,142.6440580230355,23.107086,0.1,151.25635,1626728206999
Fix,GT,37.4679464,-122.2923099,142.4101070138812,24.10011,0.1,153.31262,1626728207999
Fix,GT,37.4677465,-122.2921893,142.23502142822744,25.171772,0.1,155.01434,1626728208999
Fix,GT,37.4675351,-122.2920709,142.01107968509194,26.175482,0.1,156.71667,1626728209999
Fix,GT,37.4673143,-122.2919572,141.71112580877542,26.84815,0.1,158.4226,1626728210999
Fix,GT,37.467085,-122.2918483,141.44505529749392,27.57223,0.1,159.8869,1626728211999
Fix,GT,37.4668479,-122.2917435,141.21509227335454,28.22771,0.1,160.96863,1626728212999
Fix,GT,37.4666051,-122.2916416,140.9260246348381,28.487785,0.1,161.92346,1626728213999
Fix,GT,37.4663612,-122.2915462,140.65208940845727,28.22126,0.1,163.2107,1626728214999
Fix,GT,37.4661182,-122.2914581,140.35407716864347,27.945162,0.1,164.51929,1626728215999
Fix,GT,37.4658758,-122.2913797,140.0720741677284,27.663122,0.1,166.34863,1626728216999
Fix,GT,37.465634,-122.2913112,139.84108353847267,27.441362,0.1,168.02539,1626728217999
Fix,GT,37.4653913,-122.2912522,139.58310531818867,27.503931,0.1,169.74481,1626728218999
Fix,GT,37.4651455,-122.2912007,139.24613645672798,27.870487,0.1,171.12085,1626728219999
Fix,GT,37.4648949,-122.2911563,138.94909314954282,28.31435,0.1,172.64148,1626728220999
Fix,GT,37.4646395,-122.2911197,138.61713055956363,28.780577,0.1,174.17383,1626728221999
Fix,GT,37.4643792,-122.2910911,138.2411151534915,29.238407,0.1,175.5658,1626728222999
Fix,GT,37.4641144,-122.2910698,137.82911840164664,29.65698,0.1,176.85248,1626728223999
Fix,GT,37.4638459,-122.2910554,137.4630967053771,29.97462,0.1,177.94214,1626728224999
Fix,GT,37.4635758,-122.2910453,137.0691499147415,29.924248,0.1,178.28906,1626728225999
Fix,GT,37.4633072,-122.2910357,136.56618760800362,29.734222,0.1,178.23804,1626728226999
Fix,GT,37.4630397,-122.2910254,136.02414087229965,29.675356,0.1,178.14435,1626728227999
Fix,GT,37.4627727,-122.2910151,135.4511786420941,29.633358,0.1,178.11932,1626728228999
Fix,GT,37.4625061,-122.2910047,134.975109821856,29.555174,0.1,178.1272,1626728229999
Fix,GT,37.4622405,-122.2909938,134.6620911024213,29.429327,0.1,178.11621,1626728230999
Fix,GT,37.4619762,-122.2909831,134.40807233589888,29.286175,0.1,178.06665,1626728231999
Fix,GT,37.4617131,-122.2909699,134.1231196519136,29.157808,0.1,177.1394,1626728232999
Fix,GT,37.4614511,-122.2909482,133.66217022478585,29.094898,0.1,175.21948,1626728233999
Fix,GT,37.4611904,-122.2909149,133.07919567239284,29.076538,0.1,173.1507,1626728234999
Fix,GT,37.4609305,-122.2908727,132.4781832627058,29.074612,0.1,172.14618,1626728235999
Fix,GT,37.4606715,-122.2908241,131.88716765373945,29.04114,0.1,170.61926,1626728236999
Fix,GT,37.4604143,-122.2907648,131.30315518170596,28.99811,0.1,168.42871,1626728237999
Fix,GT,37.4601595,-122.2906938,130.77911096924544,28.92156,0.1,166.6211,1626728238999
Fix,GT,37.4599074,-122.2906134,130.1532158486843,28.788776,0.1,164.70868,1626728239999
Fix,GT,37.4596586,-122.2905219,129.5721652467251,28.767082,0.1,162.6388,1626728240999
Fix,GT,37.4594124,-122.2904207,128.9941845279932,28.700195,0.1,161.02234,1626728241999
Fix,GT,37.4591692,-122.2903111,128.48115926063062,28.672028,0.1,159.26587,1626728242999
Fix,GT,37.4589289,-122.2901915,127.92818494975566,28.693836,0.1,157.445,1626728243999
Fix,GT,37.4586915,-122.2900631,127.35618516409396,28.700888,0.1,155.88477,1626728244999
Fix,GT,37.4584567,-122.2899263,126.73520774394274,28.740177,0.1,154.14142,1626728245999
Fix,GT,37.4582253,-122.2897799,126.1611823861003,28.772694,0.1,152.30334,1626728246999
Fix,GT,37.4579976,-122.289624,125.58316978293657,28.803473,0.1,150.31055,1626728247999
Fix,GT,37.4577737,-122.2894584,125.03816676545144,28.895628,0.1,148.7716,1626728248999
Fix,GT,37.4575517,-122.2892848,124.561144482553,29.170473,0.1,147.25168,1626728249999
Fix,GT,37.4573317,-122.2891017,124.13912536233664,29.407597,0.1,145.46027,1626728250999
Fix,GT,37.457115,-122.2889082,123.906077231884,29.593348,0.1,143.56332,1626728251999
Fix,GT,37.4569025,-122.2887046,123.70605154705048,29.745157,0.1,141.62817,1626728252999
Fix,GT,37.4566945,-122.2884916,123.6100193516016,29.856916,0.1,139.79254,1626728253999
Fix,GT,37.4564914,-122.2882694,123.61197416830063,29.941923,0.1,137.90686,1626728254999
Fix,GT,37.4562943,-122.2880378,123.795928881526,29.973656,0.1,135.75848,1626728255999
Fix,GT,37.4561039,-122.2877974,124.06288025933505,29.961348,0.1,133.87292,1626728256999
Fix,GT,37.4559198,-122.2875498,124.4388509632349,29.943583,0.1,132.11615,1626728257999
Fix,GT,37.4557415,-122.287296,124.87686701625584,29.911924,0.1,130.61731,1626728258999
Fix,GT,37.455568,-122.2870373,125.20594479757548,29.913296,0.1,129.6499,1626728259999
Fix,GT,37.4553959,-122.2867768,125.47790897488592,29.9386,0.1,129.48395,1626728260999
Fix,GT,37.4552244,-122.2865158,125.8838242584467,29.916721,0.1,129.42487,1626728261999
Fix,GT,37.4550523,-122.2862548,126.45479147720336,30.036652,0.1,129.45483,1626728262999
Fix,GT,37.4548795,-122.2859928,127.15673253691196,30.167646,0.1,129.63171,1626728263999
Fix,GT,37.4547047,-122.2857297,127.804774684608,30.438889,0.1,129.69293,1626728264999
Fix,GT,37.454529,-122.2854639,128.4587907752991,30.594187,0.1,129.3628,1626728265999
Fix,GT,37.4543539,-122.2851964,129.14379381912948,30.654842,0.1,129.23468,1626728266999
Fix,GT,37.4541785,-122.2849284,129.84274771660566,30.736734,0.1,129.33276,1626728267999
Fix,GT,37.4540031,-122.2846609,130.48280976092815,30.456438,0.1,129.45816,1626728268999
Fix,GT,37.4538285,-122.2843966,131.12478327715397,30.382013,0.1,129.49084,1626728269999
Fix,GT,37.4536539,-122.2841311,131.80278303325176,30.528702,0.1,129.39352,1626728270999
Fix,GT,37.453478,-122.2838645,132.49677621531487,30.705393,0.1,129.54083,1626728271999
Fix,GT,37.4533009,-122.2835968,133.19881879442931,30.893267,0.1,129.594,1626728272999
Fix,GT,37.4531231,-122.2833268,133.84676912438871,31.076721,0.1,129.37946,1626728273999
Fix,GT,37.4529447,-122.2830546,134.43583160215616,31.278238,0.1,129.307,1626728274999
Fix,GT,37.4527655,-122.2827818,134.9968214968443,31.121876,0.1,129.44992,1626728275999
Fix,GT,37.4525878,-122.2825117,135.49184446805714,30.919445,0.1,129.3844,1626728276999
Fix,GT,37.4524109,-122.2822423,135.9598641716838,30.87652,0.1,129.29813,1626728277999
Fix,GT,37.4522343,-122.2819722,136.33689055675265,30.92465,0.1,129.19104,1626728278999
Fix,GT,37.4520577,-122.2817015,136.68588711464406,30.978758,0.1,129.19717,1626728279999
Fix,GT,37.451881,-122.2814311,136.9379268752336,30.832674,0.1,129.39429,1626728280999
Fix,GT,37.4517039,-122.2811629,137.1529267965555,30.839474,0.1,129.61298,1626728281999
Fix,GT,37.4515259,-122.2808943,137.32895669537783,30.987236,0.1,129.5838,1626728282999
Fix,GT,37.4513474,-122.2806238,137.44198666119576,31.126368,0.1,129.46777,1626728283999
Fix,GT,37.4511687,-122.2803516,137.50398998481035,31.289207,0.1,129.17636,1626728284999
Fix,GT,37.4509904,-122.2800765,137.50298997372388,31.45276,0.1,128.94751,1626728285999
Fix,GT,37.4508112,-122.2797997,137.41203011101484,31.663095,0.1,129.01617,1626728286999
Fix,GT,37.4506301,-122.2795214,137.29705024045705,31.89656,0.1,129.27026,1626728287999
Fix,GT,37.4504464,-122.2792426,137.0790637058616,32.13362,0.1,129.61801,1626728288999
Fix,GT,37.450261,-122.2789618,136.8510906291604,32.300076,0.1,129.44806,1626728289999
Fix,GT,37.4500763,-122.2786814,136.5170806479454,32.049232,0.1,129.50952,1626728290999
Fix,GT,37.4498936,-122.2784034,136.08113792020083,31.717348,0.1,129.34164,1626728291999
Fix,GT,37.4497131,-122.2781282,135.6731380717158,31.3787,0.1,129.35486,1626728292999
Fix,GT,37.4495341,-122.2778555,135.1551719301343,31.145142,0.1,129.45056,1626728293999
Fix,GT,37.4493557,-122.2775855,134.64716536885498,30.935091,0.1,129.68402,1626728294999
Fix,GT,37.4491773,-122.2773177,134.0192196070552,30.866177,0.1,129.9318,1626728295999
Fix,GT,37.4489981,-122.2770507,133.33423336809872,30.91309,0.1,130.11426,1626728296999
Fix,GT,37.4488178,-122.276784,132.5622539381385,30.980713,0.1,130.39478,1626728297999
Fix,GT,37.4486352,-122.2765184,131.70731182646753,31.076107,0.1,130.90625,1626728298999
Fix,GT,37.4484509,-122.2762535,130.80630198711157,31.148476,0.1,131.16553,1626728299999
Fix,GT,37.4482654,-122.2759889,129.9273159032464,31.18421,0.1,131.30457,1626728300999
Fix,GT,37.4480796,-122.2757245,129.03729924440384,31.19841,0.1,131.39246,1626728301999
Fix,GT,37.4478933,-122.2754603,128.1293199892044,31.216219,0.1,131.35446,1626728302999
Fix,GT,37.4477078,-122.2751953,127.2343237387538,31.174097,0.1,131.07275,1626728303999
Fix,GT,37.4475233,-122.2749299,126.32829338145255,31.166199,0.1,130.89838,1626728304999
Fix,GT,37.4473388,-122.2746641,125.43629369413854,31.21262,0.1,131.08362,1626728305999
Fix,GT,37.4471531,-122.2743984,124.53830426818132,31.336031,0.1,131.1977,1626728306999
Fix,GT,37.4469659,-122.2741315,123.67828405749798,31.585793,0.1,131.28116,1626728307999
Fix,GT,37.4467768,-122.2738624,122.91524324709177,31.894827,0.1,131.33783,1626728308999
Fix,GT,37.4465858,-122.2735907,122.24219549012184,32.219185,0.1,131.26044,1626728309999
Fix,GT,37.4463933,-122.2733157,121.70913389819862,32.46415,0.1,131.2988,1626728310999
Fix,GT,37.4462002,-122.2730416,121.40508936154842,32.320843,0.1,131.53644,1626728311999
Fix,GT,37.4460071,-122.2727674,121.15907225298882,32.43495,0.1,131.16113,1626728312999
Fix,GT,37.445816,-122.2724888,121.00707232934238,32.585022,0.1,130.14899,1626728313999
Fix,GT,37.4456293,-122.2722049,120.88504137468338,32.45033,0.1,128.64087,1626728314999
Fix,GT,37.4454508,-122.2719163,120.81901380610466,32.174507,0.1,126.77588,1626728315999
Fix,GT,37.4452808,-122.2716235,120.82797926867008,31.929546,0.1,125.1785,1626728316999
Fix,GT,37.445119,-122.2713277,120.91494811713696,31.535957,0.1,123.498505,1626728317999
Fix,GT,37.4449661,-122.2710289,121.09192382514476,31.303997,0.1,121.703674,1626728318999
Fix,GT,37.4448215,-122.2707264,121.40989948052167,31.105976,0.1,120.05328,1626728319999
Fix,GT,37.4446848,-122.2704207,121.71691672420502,30.906868,0.1,118.406006,1626728320999
Fix,GT,37.4445559,-122.2701124,122.08086800849438,30.68834,0.1,116.87192,1626728321999
Fix,GT,37.4444345,-122.269802,122.455850484848,30.481638,0.1,115.34561,1626728322999
Fix,GT,37.4443209,-122.2694893,122.74582596337795,30.31234,0.1,113.49817,1626728323999
Fix,GT,37.4442155,-122.2691742,123.06386410731076,30.148401,0.1,111.991516,1626728324999
Fix,GT,37.4441175,-122.2688578,123.4928221117854,29.927753,0.1,110.32587,1626728325999
Fix,GT,37.4440272,-122.2685399,123.82089524900914,29.785131,0.1,108.7399,1626728326999
Fix,GT,37.4439448,-122.2682205,124.16789863526822,29.633265,0.1,107.091675,1626728327999
Fix,GT,37.4438693,-122.2679,124.50988453394176,29.489447,0.1,105.83203,1626728328999
Fix,GT,37.4437994,-122.2675789,124.851859893322,29.428335,0.1,104.46973,1626728329999
Fix,GT,37.4437369,-122.2672556,125.205877281487,29.436007,0.1,102.77673,1626728330999
Fix,GT,37.443682,-122.2669301,125.53888066208364,29.417696,0.1,101.01468,1626728331999
Fix,GT,37.4436351,-122.2666029,125.86887702697516,29.411316,0.1,99.31653,1626728332999
Fix,GT,37.4435958,-122.2662741,126.17190151810644,29.422104,0.1,97.72412,1626728333999
Fix,GT,37.4435635,-122.265944,126.46089437639714,29.439278,0.1,96.2121,1626728334999
Fix,GT,37.4435376,-122.2656126,126.689929510355,29.471872,0.1,94.853455,1626728335999
Fix,GT,37.4435186,-122.2652803,126.8679541336894,29.47176,0.1,93.2977,1626728336999
Fix,GT,37.4435067,-122.2649474,127.01294702368976,29.507015,0.1,91.72046,1626728337999
Fix,GT,37.4435023,-122.2646137,127.096,29.56128,0.1,90.10751,1626728338999
Fix,GT,37.4435052,-122.264279,127.09802831220628,29.653175,0.1,88.518524,1626728339999
Fix,GT,37.4435152,-122.2639436,127.0509397737384,29.735895,0.1,87.19385,1626728340999
Fix,GT,37.4435319,-122.2636077,127.0230177320838,29.808533,0.1,85.77545,1626728341999
Fix,GT,37.4435554,-122.2632717,126.9860461499095,29.864101,0.1,83.841095,1626728342999
Fix,GT,37.4435882,-122.262936,126.73611727172135,29.998009,0.1,82.158325,1626728343999
Fix,GT,37.443627,-122.2625995,126.41412806153298,30.13225,0.1,81.52753,1626728344999
Fix,GT,37.4436655,-122.2622636,126.07211751168968,29.913433,0.1,82.04889,1626728345999
Fix,GT,37.4437012,-122.2619301,125.73709981036184,29.707163,0.1,82.37775,1626728346999
Fix,GT,37.4437368,-122.2615971,125.48508206933737,29.759876,0.1,82.165375,1626728347999
Fix,GT,37.4437729,-122.2612635,125.29807143855096,29.833641,0.1,82.16113,1626728348999
Fix,GT,37.4438095,-122.2609289,125.11007151007652,29.940933,0.1,81.99045,1626728349999
Fix,GT,37.4438469,-122.2605934,124.9350751631856,30.009365,0.1,81.86908,1626728350999
Fix,GT,37.4438842,-122.2602571,124.69510390394926,30.084202,0.1,82.12268,1626728351999
Fix,GT,37.4439192,-122.2599195,124.36512911295893,30.161524,0.1,82.86459,1626728352999
Fix,GT,37.4439508,-122.2595807,123.94516514766217,30.210194,0.1,83.6257,1626728353999
Fix,GT,37.4439762,-122.2592412,123.47515453606844,30.151703,0.1,85.69336,1626728354999
Fix,GT,37.4439914,-122.258901,122.97519426167013,30.196365,0.1,87.54526,1626728355999
Fix,GT,37.4439984,-122.2585596,122.39921966916324,30.277998,0.1,89.45792,1626728356999
Fix,GT,37.4439953,-122.258217,121.7342595477104,30.387112,0.1,91.73645,1626728357999
Fix,GT,37.4439826,-122.2578735,121.00827423882484,30.445244,0.1,93.47623,1626728358999
Fix,GT,37.4439609,-122.2575314,120.20728174388408,30.307692,0.1,95.45386,1626728359999
Fix,GT,37.4439299,-122.2571922,119.33133264231682,30.161718,0.1,97.4823,1626728360999
Fix,GT,37.44389,-122.2568557,118.3973474597931,30.063644,0.1,99.308044,1626728361999
Fix,GT,37.4438413,-122.2565221,117.3893767991066,29.993692,0.1,101.24829,1626728362999
Fix,GT,37.443784,-122.2561906,116.29640618419648,30.065933,0.1,103.13513,1626728363999
Fix,GT,37.443718,-122.2558607,115.16041748911142,30.158518,0.1,104.89044,1626728364999
Fix,GT,37.4436429,-122.2555326,113.92045061302186,30.299557,0.1,106.830505,1626728365999
Fix,GT,37.4435586,-122.2552062,112.68643287581206,30.45795,0.1,108.95709,1626728366999
Fix,GT,37.4434642,-122.2548819,111.43345516341924,30.669352,0.1,110.9523,1626728367999
Fix,GT,37.4433604,-122.2545595,110.1844592628479,30.89418,0.1,112.802765,1626728368999
Fix,GT,37.4432478,-122.2542389,108.93245242381096,31.108997,0.1,114.593445,1626728369999
Fix,GT,37.4431262,-122.2539212,107.6514674835205,31.314356,0.1,116.53186,1626728370999
Fix,GT,37.4429953,-122.2536065,106.38245332551004,31.502945,0.1,118.46539,1626728371999
Fix,GT,37.442855,-122.2532963,105.10845012420415,31.670801,0.1,120.6734,1626728372999
Fix,GT,37.442704,-122.2529917,103.83946888732908,31.821453,0.1,122.967255,1626728373999
Fix,GT,37.4425426,-122.2526936,102.5584803531766,31.97098,0.1,125.23761,1626728374999
Fix,GT,37.4423721,-122.2524024,101.26844412493703,31.980352,0.1,127.21478,1626728375999
Fix,GT,37.4421943,-122.2521189,100.06450335848332,31.903091,0.1,129.05402,1626728376999
Fix,GT,37.4420089,-122.2518438,98.75947443431616,31.86218,0.1,131.30627,1626728377999
Fix,GT,37.4418164,-122.2515773,97.42643808913232,31.78101,0.1,132.88672,1626728378999
Fix,GT,37.4416197,-122.2513175,96.3284348437786,31.638218,0.1,133.82068,1626728379999
Fix,GT,37.4414223,-122.2510603,95.11047953009606,31.555347,0.1,133.8226,1626728380999
Fix,GT,37.4412252,-122.2508038,93.85847262573242,31.523262,0.1,133.75702,1626728381999
Fix,GT,37.4410286,-122.2505466,92.58044352293014,31.513245,0.1,133.66873,1626728382999
Fix,GT,37.4408325,-122.2502895,91.38247725617886,31.485697,0.1,133.6623,1626728383999
Fix,GT,37.4406362,-122.2500328,90.10545921611786,31.470888,0.1,133.74487,1626728384999
Fix,GT,37.4404398,-122.2497763,88.84850043582917,31.464113,0.1,133.75433,1626728385999
Fix,GT,37.4402436,-122.2495198,87.60644156467914,31.452251,0.1,133.71136,1626728386999
Fix,GT,37.4400476,-122.2492631,86.35544942587615,31.438452,0.1,133.68085,1626728387999
Fix,GT,37.4398518,-122.2490066,85.1754461479187,31.404015,0.1,133.66092,1626728388999
Fix,GT,37.4396551,-122.2487516,83.95850613689421,31.384045,0.1,134.23938,1626728389999
Fix,GT,37.4394567,-122.2484987,82.54753642463685,31.413893,0.1,134.5827,1626728390999
Fix,GT,37.4392575,-122.2482466,81.26945119285584,31.404839,0.1,134.75488,1626728391999
Fix,GT,37.4390575,-122.2479957,80.0084814928174,31.40057,0.1,135.03766,1626728392999
Fix,GT,37.4388565,-122.2477463,78.72842218363284,31.316235,0.1,135.37347,1626728393999
Fix,GT,37.4386562,-122.2474998,77.46651235723495,30.926704,0.1,135.62036,1626728394999
Fix,GT,37.4384586,-122.2472603,76.30643424248696,30.01136,0.1,136.19778,1626728395999
Fix,GT,37.4382639,-122.247033,75.1035021121502,29.113497,0.1,138.04819,1626728396999
Fix,GT,37.4380679,-122.2468193,73.88948009490967,28.564718,0.1,139.65106,1626728397999
Fix,GT,37.4378724,-122.2466154,72.68846929717064,27.801647,0.1,140.50256,1626728398999
Fix,GT,37.4376817,-122.2464196,71.56745096874236,26.906212,0.1,140.66089,1626728399999
Fix,GT,37.437497,-122.2462297,70.45742883479595,26.168802,0.1,140.69376,1626728400999
Fix,GT,37.4373164,-122.2460454,69.44435394239426,25.493265,0.1,140.93823,1626728401999
Fix,GT,37.4371406,-122.2458662,68.39439197397232,24.818933,0.1,140.91104,1626728402999
Fix,GT,37.43697,-122.2456904,67.37536971640587,24.190447,0.1,140.31512,1626728403999
Fix,GT,37.4368046,-122.2455159,66.21546826267243,23.932486,0.1,139.60428,1626728404999
Fix,GT,37.436641,-122.2453385,64.96348761326074,24.055264,0.1,138.77362,1626728405999
Fix,GT,37.4364788,-122.2451598,63.656491865873335,23.774101,0.1,138.57007,1626728406999
Fix,GT,37.4363203,-122.2449841,62.41446204078198,23.174208,0.1,138.45148,1626728407999
Fix,GT,37.4361659,-122.244813,61.20444732093812,22.630327,0.1,138.38788,1626728408999
Fix,GT,37.4360145,-122.2446449,60.034451551556586,22.24202,0.1,138.5065,1626728409999
Fix,GT,37.4358653,-122.2444797,58.97638361686468,21.884434,0.1,138.3829,1626728410999
Fix,GT,37.4357204,-122.2443182,58.093258523941046,21.009005,0.1,138.35187,1626728411999
Fix,GT,37.4355848,-122.2441689,57.56517505383491,18.856339,0.1,138.82843,1626728412999
Fix,GT,37.4354643,-122.2440369,57.27109903645516,16.557518,0.1,138.96588,1626728413999
Fix,GT,37.4353595,-122.2439227,57.094133447647096,14.241177,0.1,139.07635,1626728414999
Fix,GT,37.4352733,-122.243823,56.8870763297081,11.710163,0.1,135.42706,1626728415999
Fix,GT,37.4352122,-122.2437294,56.61210314166546,9.754198,0.1,124.42438,1626728416999
Fix,GT,37.4351814,-122.2436328,56.43506882762909,8.886882,0.1,104.93518,1626728417999
Fix,GT,37.4351852,-122.2435325,56.2480382733345,8.764892,0.1,78.43292,1626728418999
Fix,GT,37.4352216,-122.24344,55.96512259292603,9.542723,0.1,60.10251,1626728419999
Fix,GT,37.4352697,-122.2433413,55.640118876457215,10.779401,0.1,58.34735,1626728420999
Fix,GT,37.4353222,-122.2432337,55.2731573703289,11.491646,0.1,58.560425,1626728421999
Fix,GT,37.4353761,-122.2431212,54.88814599585533,11.6733885,0.1,59.098145,1626728422999
Fix,GT,37.4354295,-122.2430074,54.48515766847134,11.680823,0.1,59.63025,1626728423999
Fix,GT,37.4354816,-122.242895,54.11016551595926,11.232439,0.1,59.745605,1626728424999
Fix,GT,37.4355313,-122.2427882,53.72516566973925,10.637478,0.1,59.79779,1626728425999
Fix,GT,37.4355773,-122.2426903,53.36809255552292,9.157904,0.1,59.33084,1626728426999
Fix,GT,37.4356134,-122.2426131,53.10806948316097,6.6820583,0.1,59.48987,1626728427999
Fix,GT,37.4356387,-122.2425595,52.9230540933609,4.3282623,0.1,59.370544,1626728428999
Fix,GT,37.4356536,-122.2425284,52.80803867506981,2.1780517,0.1,59.19153,1626728429999
Fix,GT,37.4356601,-122.2425156,52.7620116134286,0.6102331,0.1,58.381744,1626728430999
Fix,GT,37.4356615,-122.242513,52.751,0.043155555,0.1,58.10367,1626728431999
Fix,GT,37.4356616,-122.2425128,52.746,0.009409657,0.1,58.065674,1626728432999
Fix,GT,37.4356616,-122.2425128,52.746,0.0031538834,0.1,58.0643,1626728433999
Fix,GT,37.4356616,-122.2425128,52.745,0.0010016095,0.1,58.065308,1626728434999
Fix,GT,37.4356616,-122.2425128,52.745,0.00223515,0.1,58.065643,1626728435999
Fix,GT,37.4356616,-122.2425128,52.745,0.001,0.1,58.065643,1626728436999
Fix,GT,37.4356616,-122.2425128,52.745,0.001,0.1,58.06552,1626728437999
Fix,GT,37.4356616,-122.2425128,52.745,0.001,0.1,58.065308,1626728438999
Fix,GT,37.4356616,-122.2425128,52.745,0.001,0.1,58.06543,1626728439999
Fix,GT,37.4356616,-122.2425128,52.745,0.001,0.1,58.06546,1626728440999
Fix,GT,37.4356616,-122.2425128,52.745,0.001,0.1,58.0654,1626728441999
Fix,GT,37.4356616,-122.2425128,52.745,0.001,0.1,58.06537,1626728442999
Fix,GT,37.4356616,-122.2425128,52.745,0.001,0.1,58.065063,1626728443999
Fix,GT,37.4356616,-122.2425128,52.745,0.001,0.1,58.065125,1626728444999
Fix,GT,37.4356616,-122.2425128,52.745,0.001,0.1,58.06494,1626728445999
Fix,GT,37.4356616,-122.2425128,52.745,0.001,0.1,58.065033,1626728446999
Fix,GT,37.4356616,-122.2425128,52.745,3.9331317e-06,0.1,58.065216,1626728447999
Fix,GT,37.4356616,-122.2425128,52.745,0.0,0.1,58.065063,1626728448999
Fix,GT,37.4356616,-122.2425128,52.745,0.0009960596,0.1,58.06485,1626728449999
Fix,GT,37.4356616,-122.2425128,52.745,0.0,0.1,58.064697,1626728450999
Fix,GT,37.4356616,-122.2425128,52.745,0.0,0.1,58.06476,1626728451999
Fix,GT,37.4356616,-122.2425128,52.745,0.0,0.1,58.06476,1626728452999
Fix,GT,37.4356616,-122.2425128,52.745,3.9549473e-06,0.1,58.064667,1626728453999
Fix,GT,37.4356616,-122.2425128,52.745,3.958583e-06,0.1,58.064423,1626728454999
Fix,GT,37.4356616,-122.2425128,52.745,0.0,0.1,58.064575,1626728455999
Fix,GT,37.4356616,-122.2425128,52.745,3.965855e-06,0.1,58.06479,1626728456999
