MessageType,Provider,LatitudeDegrees,LongitudeDegrees,AltitudeMeters,SpeedMps,AccuracyMeters,BearingDegrees,UnixTimeMillis
Fix,GT,37.4441055,-122.2327674,10.851999676585198,0.001,0.1,30.257385,1626727759438
Fix,GT,37.4441055,-122.2327674,10.850999676615,0.001,0.1,30.257416,1626727760438
Fix,GT,37.4441056,-122.2327674,10.851000323385,0.0014142136,0.1,30.257507,1626727761438
Fix,GT,37.4441056,-122.2327674,10.850999676615,0.0014142136,0.1,30.257446,1626727762438
Fix,GT,37.4441056,-122.2327674,10.850999676615,0.0014142136,0.1,30.257294,1626727763438
Fix,GT,37.4441056,-122.2327674,10.850999676615,0.001917053,0.1,30.256653,1626727764438
Fix,GT,37.4441056,-122.2327674,10.85577665308118,0.11993761,0.1,30.36621,1626727765438
Fix,GT,37.4441032,-122.2327708,10.848611835360527,0.5846147,0.1,26.776123,1626727766438
Fix,GT,37.4440982,-122.2327779,10.83322399377823,0.91211486,0.1,16.993439,1626727767438
Fix,GT,37.4440901,-122.2327855,10.811223349034789,1.0623733,0.1,3.9410095,1626727768438
Fix,GT,37.4440822,-122.2327899,10.78822334972024,0.61313146,0.1,352.91962,1626727769438
Fix,GT,37.4440797,-122.2327907,10.783388164401051,0.036561735,0.1,349.75256,1626727770438
Fix,GT,37.4440804,-122.2327911,10.77538784337044,0.36529744,0.1,349.2759,1626727771438
Fix,GT,37.4440873,-122.2327972,10.793940822005272,1.4441373,0.1,340.10126,1626727772438
Fix,GT,37.4440973,-122.2328168,10.814223993450405,2.3195968,0.1,315.41443,1626727773438
Fix,GT,37.4441001,-122.2328497,10.7655068410635,3.2404313,0.1,283.4886,1626727774438
Fix,GT,37.4440894,-122.2328895,10.700118674695492,3.878391,0.1,252.98175,1626727775438
Fix,GT,37.4440641,-122.2329221,10.598506203621625,3.8547783,0.1,226.31105,1626727776438
Fix,GT,37.4440384,-122.2329395,10.50067101287842,2.3081005,0.1,211.0647,1626727777438
Fix,GT,37.4440222,-122.2329498,10.435835195481776,2.2096338,0.1,208.40358,1626727778438
Fix,GT,37.4440024,-122.2329625,10.343908030271528,2.7506773,0.1,207.66144,1626727779438
Fix,GT,37.4439756,-122.2329796,10.30273049712181,4.009295,0.1,206.86278,1626727780438
Fix,GT,37.44394,-122.2330025,10.223671317458152,4.5621653,0.1,207.16495,1626727781438
Fix,GT,37.4439055,-122.2330266,10.155059177398682,4.1611953,0.1,209.43779,1626727782438
Fix,GT,37.4438781,-122.2330516,10.08689468383789,3.2122493,0.1,215.69984,1626727783438
Fix,GT,37.4438613,-122.233071,9.985954158604144,1.9744961,0.1,221.3179,1626727784438
Fix,GT,37.4438513,-122.2330908,9.856565401554109,2.2232132,0.1,232.56082,1626727785438
Fix,GT,37.4438479,-122.2331202,9.722282847523688,2.9533982,0.1,255.22131,1626727786438
Fix,GT,37.4438545,-122.2331618,9.693835216879844,4.4763246,0.1,279.17963,1626727787438
Fix,GT,37.4438754,-122.2332181,9.576953572958708,6.496994,0.1,295.22427,1626727788438
Fix,GT,37.443907,-122.2332926,9.33546009749174,8.386436,0.1,298.81375,1626727789438
Fix,GT,37.4439483,-122.233379,9.11657845661044,9.435082,0.1,301.33792,1626727790438
Fix,GT,37.4439953,-122.2334748,8.855460111796857,10.346977,0.1,301.59546,1626727791438
Fix,GT,37.4440452,-122.2335753,8.550401199102401,10.660766,0.1,302.10748,1626727792438
Fix,GT,37.4440976,-122.2336787,8.295671258568763,10.940533,0.1,302.5583,1626727793438
Fix,GT,37.4441514,-122.2337829,8.089907956898212,11.015834,0.1,303.2239,1626727794438
Fix,GT,37.4442063,-122.2338863,7.854072207808494,10.878647,0.1,303.61746,1626727795438
Fix,GT,37.4442583,-122.2339851,7.62123670244217,9.936297,0.1,303.2686,1626727796438
Fix,GT,37.4443044,-122.2340727,7.448789361953736,8.647593,0.1,303.43176,1626727797438
Fix,GT,37.4443433,-122.2341476,7.270400978684425,6.9708085,0.1,302.27295,1626727798438
Fix,GT,37.4443685,-122.2342043,7.16311813673377,4.4710717,0.1,298.65173,1626727799438
Fix,GT,37.4443835,-122.2342387,7.087999788761138,2.6933784,0.1,298.39697,1626727800438
Fix,GT,37.4443921,-122.2342587,7.049835294961929,1.2908405,0.1,298.4127,1626727801438
Fix,GT,37.4443945,-122.2342643,7.031835714876652,0.044059996,0.1,298.42007,1626727802438
Fix,GT,37.4443945,-122.2342643,7.025,0.002598494,0.1,298.42276,1626727803438
Fix,GT,37.4443945,-122.2342643,7.027000209420919,0.0036829973,0.1,298.4225,1626727804438
Fix,GT,37.4443945,-122.2342643,7.027000209420919,0.0020916336,0.1,298.42078,1626727805438
Fix,GT,37.4443945,-122.2342642,7.027000209420919,0.001917053,0.1,298.42075,1626727806438
Fix,GT,37.4443945,-122.2342642,7.027000209420919,0.0008652654,0.1,298.42084,1626727807438
Fix,GT,37.4443945,-122.2342642,7.027000209420919,0.0011607832,0.1,298.42072,1626727808438
Fix,GT,37.4443945,-122.2342642,7.026999999999999,0.0008652654,0.1,298.42044,1626727809438
Fix,GT,37.4443945,-122.2342642,7.027000209420919,0.0012534304,0.1,298.4205,1626727810438
Fix,GT,37.4443945,-122.2342642,7.02699979057908,0.0019170529,0.1,298.42053,1626727811438
Fix,GT,37.4443945,-122.2342642,7.0280000000000005,0.0014142136,0.1,298.4206,1626727812438
Fix,GT,37.4443945,-122.2342642,7.0280000000000005,0.0017562698,0.1,298.42065,1626727813438
Fix,GT,37.4443954,-122.234266,7.008671010732652,0.85674524,0.1,298.4015,1626727814438
Fix,GT,37.4444049,-122.2342903,6.962730393648148,3.9010153,0.1,296.7116,1626727815438
Fix,GT,37.4444203,-122.2343435,6.931717360854149,5.774687,0.1,288.4557,1626727816438
Fix,GT,37.4444272,-122.2344155,7.001881648778916,7.0699296,0.1,273.8288,1626727817438
Fix,GT,37.4444149,-122.2344985,7.157928005933762,7.8776145,0.1,254.0828,1626727818438
Fix,GT,37.4443758,-122.2345817,7.219881433427334,9.245051,0.1,233.65514,1626727819438
Fix,GT,37.4443108,-122.2346556,7.340658196091652,10.289448,0.1,217.83888,1626727820438
Fix,GT,37.4442273,-122.2347244,7.570256555318833,11.947365,0.1,212.24385,1626727821438
Fix,GT,37.4441291,-122.2347984,7.8988096730411055,13.344973,0.1,209.8963,1626727822438
Fix,GT,37.4440196,-122.234873,8.286526838034392,14.282198,0.1,207.82317,1626727823438
Fix,GT,37.4439009,-122.2349497,8.80152659034729,15.456251,0.1,207.06856,1626727824438
Fix,GT,37.4437719,-122.2350325,9.12264467033744,16.560347,0.1,206.9962,1626727825438
Fix,GT,37.4436354,-122.2351208,9.380434586435555,17.593103,0.1,207.36865,1626727826438
Fix,GT,37.4434911,-122.2352161,9.508881364017723,18.549488,0.1,207.74112,1626727827438
Fix,GT,37.4433412,-122.235316,9.655822183340788,18.88174,0.1,208.04562,1626727828438
Fix,GT,37.4431927,-122.2354163,9.832210634231568,18.528364,0.1,208.20569,1626727829438
Fix,GT,37.4430476,-122.2355143,10.058151157289744,18.05958,0.1,208.07997,1626727830438
Fix,GT,37.4429044,-122.2356101,10.352809738308192,18.026476,0.1,207.92078,1626727831438
Fix,GT,37.4427608,-122.2357057,10.821796713978053,18.019474,0.1,207.69833,1626727832438
Fix,GT,37.4426169,-122.2358002,11.49272417449951,18.084332,0.1,207.35674,1626727833438
Fix,GT,37.4424729,-122.2358939,12.32920462858677,17.80843,0.1,207.34207,1626727834438
Fix,GT,37.4423332,-122.2359852,13.39169770923257,17.140007,0.1,207.55963,1626727835438
Fix,GT,37.4421996,-122.2360737,14.404263362914325,16.404367,0.1,208.02544,1626727836438
Fix,GT,37.4420716,-122.2361606,15.24482948088646,15.973927,0.1,208.5775,1626727837438
Fix,GT,37.4419454,-122.236248,16.016606278538703,16.005817,0.1,208.88084,1626727838438
Fix,GT,37.4418196,-122.2363362,16.759172000467778,15.973177,0.1,209.21269,1626727839438
Fix,GT,37.4416931,-122.2364262,17.430678021192552,16.427341,0.1,209.0946,1626727840438
Fix,GT,37.4415611,-122.2365195,18.12617149972916,17.337063,0.1,209.44188,1626727841438
Fix,GT,37.4414258,-122.2366235,18.957382694780826,17.87313,0.1,213.26851,1626727842438
Fix,GT,37.4412927,-122.2367454,19.88304009962082,18.707954,0.1,217.93097,1626727843438
Fix,GT,37.4411604,-122.2368841,20.837875606775285,19.587986,0.1,221.37778,1626727844438
Fix,GT,37.4410299,-122.2370399,21.94856601426005,20.404333,0.1,225.0885,1626727845438
Fix,GT,37.4409039,-122.2372128,23.129250036746264,20.870583,0.1,229.58073,1626727846438
Fix,GT,37.4407894,-122.2374,24.33907319235802,20.921227,0.1,234.44583,1626727847438
Fix,GT,37.4406827,-122.237596,25.598791107714177,21.077206,0.1,236.22061,1626727848438
Fix,GT,37.4405785,-122.2377953,26.822534392237664,21.045956,0.1,236.64838,1626727849438
Fix,GT,37.4404718,-122.237991,28.11983733651042,20.910315,0.1,234.37872,1626727850438
Fix,GT,37.440358,-122.238179,29.401190685331823,20.88239,0.1,231.75209,1626727851438
Fix,GT,37.4402399,-122.238363,30.51853448963165,20.934143,0.1,230.64552,1626727852438
Fix,GT,37.4401181,-122.2385446,31.56787654930353,21.069372,0.1,229.23125,1626727853438
Fix,GT,37.4399912,-122.2387238,32.64124975326657,21.379154,0.1,227.55028,1626727854438
Fix,GT,37.4398579,-122.2388982,33.743428263902665,21.344303,0.1,225.11208,1626727855438
Fix,GT,37.4397206,-122.2390663,34.658427240997554,21.228703,0.1,223.35764,1626727856438
Fix,GT,37.4395802,-122.2392276,35.72080446603894,20.870138,0.1,221.31769,1626727857438
Fix,GT,37.4394383,-122.2393754,36.90758083024621,20.179554,0.1,218.51083,1626727858438
Fix,GT,37.4392966,-122.2395159,38.02719157791138,19.876513,0.1,217.8653,1626727859438
Fix,GT,37.4391543,-122.2396493,39.03387679445744,19.605455,0.1,215.88698,1626727860438
Fix,GT,37.4390099,-122.2397755,39.91181527265906,19.45674,0.1,214.0155,1626727861438
Fix,GT,37.4388637,-122.2398949,40.79899520167708,19.285608,0.1,212.22998,1626727862438
Fix,GT,37.4387156,-122.2400086,41.51378336012364,19.336432,0.1,210.74907,1626727863438
Fix,GT,37.4385632,-122.240118,42.027902967333794,19.623705,0.1,208.90329,1626727864438
Fix,GT,37.4384055,-122.2402216,42.48952785736323,19.866177,0.1,206.58281,1626727865438
Fix,GT,37.438243,-122.2403187,42.83753962731362,20.09141,0.1,204.52666,1626727866438
Fix,GT,37.438076,-122.2404102,43.06737385109067,20.367493,0.1,202.87813,1626727867438
Fix,GT,37.4379051,-122.2404969,43.22810403153301,20.513193,0.1,201.39172,1626727868438
Fix,GT,37.4377327,-122.2405791,43.39410402753949,20.464172,0.1,200.12979,1626727869438
Fix,GT,37.4375594,-122.2406597,43.43289467811584,20.55116,0.1,200.44139,1626727870438
Fix,GT,37.4373864,-122.2407436,43.6980805734694,20.618038,0.1,201.67726,1626727871438
Fix,GT,37.4372147,-122.2408333,44.05491477954388,20.645329,0.1,203.04831,1626727872438
Fix,GT,37.4370467,-122.2409283,44.51585561180114,20.225634,0.1,205.20055,1626727873438
Fix,GT,37.4368863,-122.2410316,45.06815857219696,19.808468,0.1,208.68086,1626727874438
Fix,GT,37.4367359,-122.2411478,45.749782069444656,19.37172,0.1,214.3527,1626727875438
Fix,GT,37.4366008,-122.2412803,46.54127693486214,18.69829,0.1,220.99356,1626727876438
Fix,GT,37.4364824,-122.2414255,47.19151362860202,18.067142,0.1,226.18413,1626727877438
Fix,GT,37.4363756,-122.2415747,47.75573729991913,17.42053,0.1,229.14548,1626727878438
Fix,GT,37.4362774,-122.2417227,48.44355980789661,16.61345,0.1,230.8521,1626727879438
Fix,GT,37.4361895,-122.2418672,49.14522935196757,15.541864,0.1,233.38622,1626727880438
Fix,GT,37.4361118,-122.2420044,49.75357282698154,14.042454,0.1,235.68091,1626727881438
Fix,GT,37.4360508,-122.2421293,50.35069116663933,11.742107,0.1,240.29959,1626727882438
Fix,GT,37.4360106,-122.2422336,50.72597400426865,8.832217,0.1,246.49466,1626727883438
Fix,GT,37.4359895,-122.242313,51.01192784017324,6.079116,0.1,253.3675,1626727884438
Fix,GT,37.4359806,-122.2423662,51.195044646888974,3.5773687,0.1,258.55356,1626727885438
Fix,GT,37.4359775,-122.2423951,51.27938969552517,1.9439683,0.1,261.2777,1626727886438
Fix,GT,37.4359756,-122.2424178,51.32755419927835,2.3201666,0.1,263.26443,1626727887438
Fix,GT,37.4359739,-122.242457,51.40865647912025,4.777987,0.1,266.56873,1626727888438
Fix,GT,37.435975,-122.2425239,51.57453815281392,6.932833,0.1,272.02734,1626727889438
Fix,GT,37.435984,-122.2426084,51.88951528325677,8.044083,0.1,279.25604,1626727890438
Fix,GT,37.436003,-122.2427013,52.30513699159026,9.038701,0.1,285.8092,1626727891438
Fix,GT,37.4360305,-122.2428042,52.68246599346399,10.101469,0.1,289.0567,1626727892438
Fix,GT,37.4360641,-122.2429161,53.20884117889404,11.038828,0.1,291.44226,1626727893438
Fix,GT,37.4361039,-122.2430342,53.78329009652137,11.625113,0.1,293.46533,1626727894438
Fix,GT,37.4361483,-122.2431557,54.41955995601416,11.961596,0.1,295.1207,1626727895438
Fix,GT,37.4361948,-122.2432756,55.12239709889889,11.553549,0.1,296.0218,1626727896438
Fix,GT,37.4362396,-122.2433891,55.766844459474086,10.949244,0.1,296.27014,1626727897438
Fix,GT,37.4362835,-122.2434995,56.392068140685566,10.944202,0.1,296.5441,1626727898438
Fix,GT,37.436329,-122.2436109,56.997901963412765,11.2880535,0.1,297.2061,1626727899438
Fix,GT,37.4363784,-122.2437268,57.69117182934285,11.949001,0.1,298.48358,1626727900438
Fix,GT,37.436432,-122.2438453,58.40739549946785,12.163869,0.1,300.03564,1626727901438
Fix,GT,37.43649,-122.2439634,59.146724518537525,12.409205,0.1,302.4673,1626727902438
Fix,GT,37.436554,-122.2440804,59.85956179627776,12.700465,0.1,305.41168,1626727903438
Fix,GT,37.4366236,-122.2441965,60.61621985897422,12.999861,0.1,307.476,1626727904438
Fix,GT,37.436698,-122.244312,61.41227720916271,13.281661,0.1,309.73938,1626727905438
Fix,GT,37.4367775,-122.244426,62.24899625638128,13.542378,0.1,311.7494,1626727906438
Fix,GT,37.4368606,-122.2445404,63.09454708790779,13.820421,0.1,312.46622,1626727907438
Fix,GT,37.4369457,-122.2446559,63.94721808063984,14.007372,0.1,312.62726,1626727908438
Fix,GT,37.437032,-122.2447739,64.72566541147232,14.341381,0.1,312.24924,1626727909438
Fix,GT,37.43712,-122.2448956,65.47090007093549,14.766639,0.1,312.15125,1626727910438
Fix,GT,37.4372111,-122.2450209,66.15672458028794,15.23732,0.1,312.42072,1626727911438
Fix,GT,37.4373059,-122.2451497,66.83362121325732,15.828531,0.1,312.78375,1626727912438
Fix,GT,37.4374049,-122.2452836,67.51578373849392,16.478146,0.1,312.71295,1626727913438
Fix,GT,37.4375082,-122.2454226,68.2003935508132,17.134148,0.1,313.2071,1626727914438
Fix,GT,37.4376162,-122.245565,68.91216987028719,17.532959,0.1,313.669,1626727915438
Fix,GT,37.4377263,-122.2457073,69.63178376317025,17.551819,0.1,314.22552,1626727916438
Fix,GT,37.4378369,-122.2458487,70.38772672346235,17.494585,0.1,314.18872,1626727917438
Fix,GT,37.4379452,-122.245992,71.17027731609345,17.55812,0.1,312.70865,1626727918438
Fix,GT,37.438053,-122.2461406,71.89149884885549,17.968512,0.1,312.0445,1626727919438
Fix,GT,37.4381647,-122.2462939,72.67921603184939,18.7837,0.1,312.7142,1626727920438
Fix,GT,37.4382824,-122.2464493,73.46422039029002,19.185295,0.1,313.90625,1626727921438
Fix,GT,37.4384055,-122.2466062,74.30377311006188,19.600613,0.1,314.86865,1626727922438
Fix,GT,37.4385308,-122.2467608,75.10766553860903,19.423285,0.1,315.67065,1626727923438
Fix,GT,37.4386564,-122.2469134,75.84288694792986,19.383024,0.1,315.89407,1626727924438
Fix,GT,37.4387809,-122.2470648,76.62188921880721,19.06617,0.1,315.68347,1626727925438
Fix,GT,37.4389031,-122.2472155,77.38211289334296,19.043777,0.1,315.1325,1626727926438
Fix,GT,37.4390248,-122.2473681,78.1475010743141,19.196167,0.1,314.83188,1626727927438
Fix,GT,37.439148,-122.2475233,78.92143960025906,19.589815,0.1,314.67084,1626727928438
Fix,GT,37.4392737,-122.2476827,79.71460648560524,20.075113,0.1,314.57578,1626727929438
Fix,GT,37.4394015,-122.2478452,80.52283015537262,20.359257,0.1,314.4767,1626727930438
Fix,GT,37.4395311,-122.2480101,81.34021834284067,20.56432,0.1,314.50732,1626727931438
Fix,GT,37.4396614,-122.2481756,82.15982774442435,20.590069,0.1,314.60114,1626727932438
Fix,GT,37.4397921,-122.2483413,82.97499472898244,20.684954,0.1,314.49875,1626727933438
Fix,GT,37.4399228,-122.2485092,83.79921589833498,20.834213,0.1,314.0536,1626727934438
Fix,GT,37.4400537,-122.2486786,84.66277110666036,20.908117,0.1,313.94815,1626727935438
Fix,GT,37.4401846,-122.2488489,85.52121588659287,21.001198,0.1,313.78067,1626727936438
Fix,GT,37.440316,-122.2490212,86.39693824160099,21.158913,0.1,313.53226,1626727937438
Fix,GT,37.4404476,-122.2491944,87.23660924220084,21.164246,0.1,313.5536,1626727938438
Fix,GT,37.4405792,-122.2493671,88.1013856371045,21.123604,0.1,313.71954,1626727939438
Fix,GT,37.440711,-122.2495393,88.93516203203797,21.125507,0.1,313.79337,1626727940438
Fix,GT,37.4408433,-122.2497116,89.76005399608613,21.24556,0.1,313.8737,1626727941438
Fix,GT,37.4409771,-122.249885,90.60838306629655,21.4621,0.1,314.05777,1626727942438
Fix,GT,37.4411124,-122.25006,91.46060946822166,21.693604,0.1,313.93015,1626727943438
Fix,GT,37.441249,-122.2502374,92.3143240019083,21.94241,0.1,313.95584,1626727944438
Fix,GT,37.4413872,-122.2504167,93.21565584835407,22.172703,0.1,313.88437,1626727945438
Fix,GT,37.4415262,-122.250598,94.20898495841028,22.36603,0.1,313.7897,1626727946438
Fix,GT,37.4416664,-122.2507811,95.22875852632524,22.548347,0.1,313.7374,1626727947438
Fix,GT,37.4418075,-122.250966,96.25814672803878,22.735401,0.1,313.76184,1626727948438
Fix,GT,37.4419496,-122.2511518,97.3189231071472,22.81726,0.1,313.7464,1626727949438
Fix,GT,37.442091,-122.2513385,98.3285940577984,22.724699,0.1,313.22372,1626727950438
Fix,GT,37.4422293,-122.2515273,99.3080384232998,22.65061,0.1,311.88605,1626727951438
Fix,GT,37.4423633,-122.25172,100.20354779344795,22.614935,0.1,310.31625,1626727952438
Fix,GT,37.442493,-122.2519168,101.11793598699568,22.576242,0.1,308.9968,1626727953438
Fix,GT,37.4426186,-122.2521169,102.01093600845336,22.49609,0.1,307.41144,1626727954438
Fix,GT,37.4427393,-122.2523207,102.8962157150805,22.447067,0.1,305.8535,1626727955438
Fix,GT,37.4428553,-122.2525281,103.77915968942642,22.39127,0.1,304.31616,1626727956438
Fix,GT,37.4429668,-122.2527387,104.65070929852126,22.348997,0.1,302.88052,1626727957438
Fix,GT,37.4430738,-122.2529523,105.52076839071512,22.30005,0.1,301.4779,1626727958438
Fix,GT,37.4431765,-122.2531686,106.40015972614287,22.255917,0.1,300.14218,1626727959438
Fix,GT,37.4432756,-122.2533872,107.2651597418785,22.259045,0.1,299.06296,1626727960438
Fix,GT,37.4433709,-122.2536086,108.1333801752925,22.26726,0.1,297.76865,1626727961438
Fix,GT,37.4434622,-122.2538327,109.01877483952046,22.273754,0.1,296.34872,1626727962438
Fix,GT,37.4435488,-122.2540596,109.91416305589676,22.235565,0.1,294.92227,1626727963438
Fix,GT,37.4436308,-122.2542881,110.79455127206444,22.121609,0.1,293.55927,1626727964438
Fix,GT,37.4437079,-122.254518,111.65699526602027,22.016815,0.1,292.0969,1626727965438
Fix,GT,37.4437799,-122.2547496,112.51676827555896,22.042622,0.1,290.6479,1626727966438
Fix,GT,37.4438473,-122.254983,113.37460709643364,21.767776,0.1,289.3161,1626727967438
Fix,GT,37.4439099,-122.2552141,114.222775056839,21.531498,0.1,288.20474,1626727968438
Fix,GT,37.4439685,-122.2554462,115.0997716563344,21.54554,0.1,287.0356,1626727969438
Fix,GT,37.4440231,-122.2556795,115.92561058786512,21.467735,0.1,285.71088,1626727970438
Fix,GT,37.444073,-122.2559134,116.76883426246047,21.373516,0.1,284.30164,1626727971438
Fix,GT,37.4441181,-122.2561477,117.6010544347763,21.288162,0.1,282.91434,1626727972438
Fix,GT,37.4441584,-122.2563823,118.40805443477628,21.205557,0.1,281.52054,1626727973438
Fix,GT,37.4441942,-122.2566173,119.16133718043564,21.130863,0.1,280.29282,1626727974438
Fix,GT,37.4442261,-122.2568524,119.87256082779167,21.075047,0.1,279.16028,1626727975438
Fix,GT,37.4442544,-122.2570878,120.54723534139993,21.077831,0.1,278.0202,1626727976438
Fix,GT,37.4442785,-122.2573241,121.19562354934216,21.079792,0.1,276.60458,1626727977438
Fix,GT,37.4442978,-122.257561,121.82573813438415,21.073263,0.1,275.21356,1626727978438
Fix,GT,37.4443124,-122.2577985,122.4247381310463,21.094341,0.1,273.75873,1626727979438
Fix,GT,37.4443224,-122.2580369,122.95335361871122,21.152473,0.1,272.39487,1626727980438
Fix,GT,37.4443281,-122.2582761,123.46718909105658,21.21894,0.1,271.14313,1626727981438
Fix,GT,37.4443296,-122.2585163,123.95285632741452,21.300238,0.1,269.79126,1626727982438
Fix,GT,37.4443263,-122.2587578,124.39891542226076,21.456564,0.1,268.3205,1626727983438
Fix,GT,37.4443184,-122.2590011,124.7719782384038,21.636417,0.1,267.10638,1626727984438
Fix,GT,37.4443065,-122.2592465,125.08487279886006,21.869362,0.1,265.99353,1626727985438
Fix,GT,37.4442909,-122.2594942,125.3367045302391,22.130293,0.1,264.97464,1626727986438
Fix,GT,37.4442719,-122.2597457,125.55815180540084,22.585094,0.1,264.21515,1626727987438
Fix,GT,37.4442516,-122.2600013,125.73721464690568,22.858147,0.1,264.32928,1626727988438
Fix,GT,37.4442314,-122.2602596,125.87710544967652,23.086718,0.1,264.33942,1626727989438
Fix,GT,37.444211,-122.2605208,125.96994466033578,23.411121,0.1,264.2821,1626727990438
Fix,GT,37.4441897,-122.2607867,126.0696619333327,23.779587,0.1,264.0868,1626727991438
Fix,GT,37.4441681,-122.2610527,126.20121466264128,23.525604,0.1,264.07434,1626727992438
Fix,GT,37.4441465,-122.2613152,126.3739872660637,23.16471,0.1,263.9469,1626727993438
Fix,GT,37.4441247,-122.2615734,126.5492109041214,22.79156,0.1,263.8704,1626727994438
Fix,GT,37.4441035,-122.2618275,126.693332865268,22.426517,0.1,264.0446,1626727995438
Fix,GT,37.4440835,-122.2620776,126.82421090602875,22.067633,0.1,264.29663,1626727996438
Fix,GT,37.4440642,-122.2623238,126.95305014565584,21.712914,0.1,264.26965,1626727997438
Fix,GT,37.4440452,-122.2625661,127.0757210599184,21.36998,0.1,264.38177,1626727998438
Fix,GT,37.4440272,-122.2628046,127.1396709088087,21.043,0.1,264.6002,1626727999438
Fix,GT,37.4440102,-122.2630396,127.20916833695767,20.72147,0.1,264.72345,1626728000438
Fix,GT,37.4439934,-122.263271,127.3278780255914,20.392088,0.1,264.67404,1626728001438
Fix,GT,37.4439763,-122.2634987,127.40448984235525,20.111969,0.1,264.40796,1626728002438
Fix,GT,37.4439587,-122.2637233,127.47598348167536,19.789612,0.1,264.3452,1626728003438
Fix,GT,37.4439423,-122.2639457,127.51916454684736,19.834633,0.1,264.80954,1626728004438
Fix,GT,37.443928,-122.2641717,127.5556080161631,20.27709,0.1,265.86548,1626728005438
Fix,GT,37.4439177,-122.2644029,127.5458392535448,20.723595,0.1,267.49902,1626728006438
Fix,GT,37.4439128,-122.2646392,127.51761561778189,21.098318,0.1,268.9281,1626728007438
Fix,GT,37.4439116,-122.2648778,127.46928272151948,21.160538,0.1,270.08847,1626728008438
Fix,GT,37.4439145,-122.265119,127.40406288304924,21.553913,0.1,271.19348,1626728009438
Fix,GT,37.4439209,-122.2653649,127.30695741638542,21.993156,0.1,272.3057,1626728010438
Fix,GT,37.4439317,-122.2656155,127.1815616479814,22.412909,0.1,273.5744,1626728011438
Fix,GT,37.4439476,-122.2658703,127.02140088701248,22.828377,0.1,275.0518,1626728012438
Fix,GT,37.4439689,-122.2661292,126.80545619010924,23.264717,0.1,276.4102,1626728013438
Fix,GT,37.4439957,-122.2663927,126.55818994927408,23.724903,0.1,277.79803,1626728014438
Fix,GT,37.4440277,-122.2666611,126.26058189490436,24.35003,0.1,278.89938,1626728015438
Fix,GT,37.4440647,-122.2669355,125.92857812690735,24.895466,0.1,280.06116,1626728016438
Fix,GT,37.4441073,-122.2672143,125.5944135721326,25.351759,0.1,281.4233,1626728017438
Fix,GT,37.4441566,-122.2674964,125.22247264432906,25.72458,0.1,283.0724,1626728018438
Fix,GT,37.4442134,-122.267779,124.86424900984764,25.781172,0.1,284.92816,1626728019438
Fix,GT,37.4442765,-122.2680585,124.50569626653194,25.610073,0.1,286.47165,1626728020438
Fix,GT,37.4443451,-122.2683338,124.1166371871829,25.42683,0.1,287.9725,1626728021438
Fix,GT,37.444419,-122.2686045,123.75280173754692,25.238644,0.1,289.50436,1626728022438
Fix,GT,37.4444976,-122.2688709,123.38924531966448,25.047012,0.1,290.93555,1626728023438
Fix,GT,37.4445813,-122.2691332,123.0112489962578,25.019817,0.1,292.43176,1626728024438
Fix,GT,37.4446707,-122.2693945,122.57069260188938,25.318005,0.1,293.72104,1626728025438
Fix,GT,37.4447652,-122.2696566,122.19496628087758,25.539867,0.1,294.73016,1626728026438
Fix,GT,37.4448645,-122.2699176,121.837354460001,25.68021,0.1,295.96582,1626728027438
Fix,GT,37.4449694,-122.2701777,121.5263508387804,25.875412,0.1,297.3561,1626728028438
Fix,GT,37.4450799,-122.2704365,121.19818629068136,26.083847,0.1,298.76804,1626728029438
Fix,GT,37.445197,-122.2706932,120.9092326988876,26.239422,0.1,300.64233,1626728030438
Fix,GT,37.4453209,-122.2709467,120.69478544482588,26.382053,0.1,302.082,1626728031438
Fix,GT,37.4454509,-122.2711975,120.56033818694948,26.53349,0.1,303.76373,1626728032438
Fix,GT,37.4455874,-122.2714446,120.43934536886216,26.667274,0.1,305.40027,1626728033438
Fix,GT,37.4457301,-122.2716878,120.42283544474842,26.765163,0.1,307.06375,1626728034438
Fix,GT,37.4458781,-122.271927,120.47904640609026,26.834618,0.1,308.29703,1626728035438
Fix,GT,37.4460306,-122.2721625,120.67214829131962,26.84956,0.1,309.5918,1626728036438
Fix,GT,37.4461869,-122.2723939,120.91009641760589,26.799679,0.1,310.6156,1626728037438
Fix,GT,37.4463454,-122.2726217,121.20936285251378,26.734861,0.1,311.13083,1626728038438
Fix,GT,37.4465036,-122.2728489,121.57597104126214,26.666946,0.1,311.07187,1626728039438
Fix,GT,37.4466616,-122.2730754,121.94213558572532,26.593655,0.1,311.13916,1626728040438
Fix,GT,37.4468193,-122.273301,122.35924106550216,26.512001,0.1,311.18365,1626728041438
Fix,GT,37.4469769,-122.2735256,122.84718197777867,26.400784,0.1,311.2649,1626728042438
Fix,GT,37.4471333,-122.2737494,123.3703538671732,26.268555,0.1,311.02304,1626728043438
Fix,GT,37.4472883,-122.2739726,123.95823573750258,26.13151,0.1,310.95746,1626728044438
Fix,GT,37.4474428,-122.2741944,124.6176202312708,25.993649,0.1,311.09674,1626728045438
Fix,GT,37.4475966,-122.2744147,125.32572198191284,25.850712,0.1,311.14343,1626728046438
Fix,GT,37.4477497,-122.2746338,126.0555574040711,25.716211,0.1,311.1696,1626728047438
Fix,GT,37.4479022,-122.2748517,126.77049830052258,25.592571,0.1,311.17352,1626728048438
Fix,GT,37.448054,-122.2750684,127.51349827837944,25.431505,0.1,311.247,1626728049438
Fix,GT,37.4482055,-122.2752841,128.23805864426492,25.44719,0.1,311.29514,1626728050438
Fix,GT,37.4483573,-122.2754999,128.9943413698375,25.513115,0.1,311.45654,1626728051438
Fix,GT,37.448511,-122.2757159,129.71278865012528,25.736473,0.1,311.76755,1626728052438
Fix,GT,37.4486665,-122.2759333,130.4373375198245,25.91866,0.1,311.7428,1626728053438
Fix,GT,37.4488225,-122.2761519,131.17194542837143,25.963612,0.1,311.59924,1626728054438
Fix,GT,37.4489762,-122.276372,131.92067055931685,25.851368,0.1,310.74387,1626728055438
Fix,GT,37.4491275,-122.2765939,132.64178477078676,25.82091,0.1,310.1084,1626728056438
Fix,GT,37.4492774,-122.2768177,133.34745963174106,25.932579,0.1,309.86023,1626728057438
Fix,GT,37.4494279,-122.2770426,134.00339258679747,25.999493,0.1,309.9034,1626728058438
Fix,GT,37.4495775,-122.2772663,134.6309029129147,25.610943,0.1,309.8208,1626728059438
Fix,GT,37.4497237,-122.2774873,135.14291155278684,25.20557,0.1,309.391,1626728060438
Fix,GT,37.4498669,-122.2777056,135.58463286972045,24.831085,0.1,309.3392,1626728061438
Fix,GT,37.4500083,-122.2779212,136.0173037610054,24.634853,0.1,309.36786,1626728062438
Fix,GT,37.4501494,-122.2781365,136.403303758502,24.69614,0.1,309.29092,1626728063438
Fix,GT,37.4502909,-122.2783523,136.7997847419977,24.716547,0.1,309.48453,1626728064438
Fix,GT,37.4504327,-122.2785667,137.21286508089304,24.60197,0.1,309.7583,1626728065438
Fix,GT,37.4505744,-122.2787797,137.49665821528433,24.51954,0.1,309.65576,1626728066438
Fix,GT,37.4507163,-122.2789931,137.71565821528435,24.666237,0.1,309.73526,1626728067438
Fix,GT,37.4508586,-122.2792085,137.87043047621847,24.838223,0.1,309.4064,1626728068438
Fix,GT,37.4510016,-122.2794257,137.96671729266643,25.011215,0.1,309.4986,1626728069438
Fix,GT,37.4511462,-122.2796437,137.9915527381897,25.166904,0.1,309.72885,1626728070438
Fix,GT,37.4512917,-122.2798626,138.02116044023632,25.264599,0.1,309.565,1626728071438
Fix,GT,37.451437,-122.2800831,138.0356118155122,25.35291,0.1,309.41107,1626728072438
Fix,GT,37.4515824,-122.2803046,138.01105907726287,25.444023,0.1,309.24576,1626728073438
Fix,GT,37.4517273,-122.2805281,137.9613417854309,25.486797,0.1,308.7185,1626728074438
Fix,GT,37.4518709,-122.2807522,137.84072996997833,25.439789,0.1,308.77988,1626728075438
Fix,GT,37.4520154,-122.2809757,137.7016203878522,25.478252,0.1,309.1861,1626728076438
Fix,GT,37.4521614,-122.2811982,137.48467947393658,25.54457,0.1,309.54245,1626728077438
Fix,GT,37.4523091,-122.2814208,137.2222953878045,25.715733,0.1,309.74164,1626728078438
Fix,GT,37.4524578,-122.2816453,136.89757809638976,25.958454,0.1,309.45978,1626728079438
Fix,GT,37.452607,-122.2818731,136.54102536058426,26.235754,0.1,309.22928,1626728080438
Fix,GT,37.4527576,-122.2821039,136.15269625401498,26.55682,0.1,309.16635,1626728081438
Fix,GT,37.4529105,-122.2823377,135.70491584163904,26.955156,0.1,309.32733,1626728082438
Fix,GT,37.4530662,-122.2825746,135.20619856563212,27.386368,0.1,309.49625,1626728083438
Fix,GT,37.453225,-122.282815,134.64893256175515,27.869034,0.1,309.57388,1626728084438
Fix,GT,37.453387,-122.2830593,134.01637583494187,28.353634,0.1,309.62848,1626728085438
Fix,GT,37.4535515,-122.2833076,133.39332075351476,28.776398,0.1,309.52353,1626728086438
Fix,GT,37.4537174,-122.2835609,132.74793257284165,29.226385,0.1,309.17676,1626728087438
Fix,GT,37.4538853,-122.2838181,132.12315620422362,29.53862,0.1,309.29523,1626728088438
Fix,GT,37.4540537,-122.2840759,131.49876801991462,29.407988,0.1,309.2387,1626728089438
Fix,GT,37.4542216,-122.284332,130.8226034669876,29.294754,0.1,309.55032,1626728090438
Fix,GT,37.4543903,-122.2845864,130.19115620422363,29.277706,0.1,309.68994,1626728091438
Fix,GT,37.4545592,-122.2848408,129.5428232306242,29.29906,0.1,309.67508,1626728092438
Fix,GT,37.4547279,-122.2850954,128.88731690984963,29.306442,0.1,309.55276,1626728093438
Fix,GT,37.4548959,-122.285351,128.2497089307308,29.333744,0.1,309.27808,1626728094438
Fix,GT,37.4550635,-122.2856077,127.59309711521864,29.376808,0.1,309.17856,1626728095438
Fix,GT,37.4552315,-122.2858648,126.91094144588708,29.440512,0.1,309.31833,1626728096438
Fix,GT,37.4554005,-122.2861216,126.24554436600206,29.476036,0.1,309.40338,1626728097438
Fix,GT,37.4555693,-122.286379,125.54482706916332,29.513622,0.1,309.1683,1626728098438
Fix,GT,37.4557383,-122.2866373,124.7823334019184,29.63011,0.1,309.36447,1626728099438
Fix,GT,37.4559098,-122.286895,124.02788243716957,29.765156,0.1,310.1304,1626728100438
Fix,GT,37.4560852,-122.2871504,123.3550343398452,29.865273,0.1,311.19305,1626728101438
Fix,GT,37.4562657,-122.2874008,122.89396260598302,29.883244,0.1,313.00635,1626728102438
Fix,GT,37.4564533,-122.2876437,122.52458173397184,29.97401,0.1,315.1878,1626728103438
Fix,GT,37.456649,-122.287878,122.3067853948772,30.098896,0.1,317.257,1626728104438
Fix,GT,37.4568524,-122.288104,122.18744361802936,30.217388,0.1,319.25928,1626728105438
Fix,GT,37.4570617,-122.2883231,122.1978782094717,30.3183,0.1,320.96613,1626728106438
Fix,GT,37.4572766,-122.288534,122.36054007446766,30.143398,0.1,322.88522,1626728107438
Fix,GT,37.4574957,-122.2887335,122.6588101156354,29.979263,0.1,324.86157,1626728108438
Fix,GT,37.4577189,-122.288923,123.0931819704473,29.857811,0.1,326.77704,1626728109438
Fix,GT,37.4579463,-122.2891022,123.61413025179505,29.755424,0.1,328.78177,1626728110438
Fix,GT,37.4581772,-122.2892714,124.21229112648965,29.613781,0.1,330.43564,1626728111438
Fix,GT,37.4584109,-122.2894313,124.7937383913994,29.465948,0.1,332.28738,1626728112438
Fix,GT,37.4586476,-122.2895799,125.4181303191483,29.300728,0.1,334.38727,1626728113438
Fix,GT,37.4588871,-122.2897168,126.0520712736249,29.13312,0.1,336.46887,1626728114438
Fix,GT,37.4591288,-122.2898433,126.64295315739513,29.006702,0.1,338.15976,1626728115438
Fix,GT,37.4593726,-122.2899597,127.21118188491462,28.912437,0.1,340.06262,1626728116438
Fix,GT,37.4596188,-122.2900655,127.73600466045735,28.845726,0.1,341.9242,1626728117438
Fix,GT,37.4598666,-122.2901619,128.32112661093475,28.74628,0.1,343.46378,1626728118438
Fix,GT,37.4601153,-122.2902497,128.93957771313194,28.622238,0.1,345.08682,1626728119438
Fix,GT,37.4603655,-122.2903269,129.55906755650042,28.600464,0.1,347.11142,1626728120438
Fix,GT,37.4606183,-122.2903927,130.19135413601992,28.7053,0.1,349.26212,1626728121438
Fix,GT,37.4608739,-122.2904477,130.76335026484728,28.88483,0.1,351.12537,1626728122438
Fix,GT,37.4611324,-122.2904932,131.34418962335587,29.076645,0.1,352.82068,1626728123438
Fix,GT,37.4613938,-122.2905273,131.9494597027302,29.241528,0.1,355.12085,1626728124438
Fix,GT,37.4616569,-122.2905494,132.58150220227242,29.267387,0.1,356.99377,1626728125438
Fix,GT,37.4619202,-122.2905642,133.36689437896013,29.249088,0.1,357.69104,1626728126438
Fix,GT,37.4621835,-122.2905761,134.07390305006504,29.25552,0.1,358.06796,1626728127438
Fix,GT,37.4624471,-122.2905859,134.6780716341734,29.297985,0.1,358.32663,1626728128438
Fix,GT,37.4627113,-122.2905949,135.2575148766041,29.349277,0.1,358.4015,1626728129438
Fix,GT,37.4629759,-122.2906037,135.83645582175257,29.396618,0.1,358.3998,1626728130438
Fix,GT,37.4632405,-122.2906125,136.4709030817151,29.351282,0.1,358.49445,1626728131438
Fix,GT,37.4635039,-122.2906206,137.16049820831418,29.027285,0.1,358.56305,1626728132438
Fix,GT,37.4637632,-122.2906298,137.958565469563,28.572926,0.1,358.07568,1626728133438
Fix,GT,37.4640186,-122.2906435,138.6710635446012,28.194046,0.1,357.05563,1626728134438
Fix,GT,37.464271,-122.2906621,139.09852753925324,27.941853,0.1,356.24374,1626728135438
Fix,GT,37.4645209,-122.2906842,139.47436298263074,27.68727,0.1,355.78683,1626728136438
Fix,GT,37.4647688,-122.2907079,139.85497896686195,27.492924,0.1,355.52515,1626728137438
Fix,GT,37.4650148,-122.2907339,140.19958243879677,27.306328,0.1,354.69824,1626728138438
Fix,GT,37.4652585,-122.290766,140.53347692281008,27.087864,0.1,353.1603,1626728139438
Fix,GT,37.4655,-122.2908071,140.8235401688814,27.053612,0.1,351.37814,1626728140438
Fix,GT,37.4657404,-122.2908572,141.08298741412162,27.023039,0.1,349.9701,1626728141438
Fix,GT,37.4659798,-122.2909106,141.33840949559212,26.924496,0.1,350.13754,1626728142438
Fix,GT,37.4662181,-122.290962,141.6799157937169,26.666979,0.1,350.23624,1626728143438
Fix,GT,37.4664525,-122.2910132,141.99481028085947,26.061317,0.1,349.88135,1626728144438
Fix,GT,37.4666785,-122.2910669,142.3308693342209,25.014275,0.1,348.65268,1626728145438
Fix,GT,37.4668941,-122.2911252,142.45605904597045,23.96074,0.1,347.18137,1626728146438
Fix,GT,37.467099,-122.2911867,142.299746701777,22.781887,0.1,345.97284,1626728147438
Fix,GT,37.4672919,-122.2912499,141.97553562533855,21.473787,0.1,344.87967,1626728148438
Fix,GT,37.4674729,-122.2913135,141.40181825715302,20.2467,0.1,343.86102,1626728149438
Fix,GT,37.4676437,-122.2913773,140.8992487131357,19.330053,0.1,343.06595,1626728150438
Fix,GT,37.4678053,-122.2914428,140.25404600185158,18.318329,0.1,341.18164,1626728151438
Fix,GT,37.467956,-122.2915112,139.45378420385717,17.256779,0.1,339.28925,1626728152438
Fix,GT,37.4680962,-122.291578,138.62245500469209,16.012386,0.1,339.38235,1626728153438
Fix,GT,37.4682268,-122.2916369,137.79083904647825,14.963648,0.1,340.84903,1626728154438
Fix,GT,37.4683502,-122.291687,136.97394864931704,13.74589,0.1,342.71204,1626728155438
Fix,GT,37.4684608,-122.2917284,136.34175491726398,11.769537,0.1,343.58112,1626728156438
Fix,GT,37.4685534,-122.2917628,135.94635824632644,9.657762,0.1,342.8118,1626728157438
Fix,GT,37.4686257,-122.2917941,135.7495103019476,7.1759915,0.1,339.41348,1626728158438
Fix,GT,37.4686723,-122.2918228,135.6836748790741,4.303624,0.1,332.83173,1626728159438
Fix,GT,37.468695,-122.2918402,135.64122765374182,1.8243203,0.1,329.17505,1626728160438
Fix,GT,37.4687019,-122.2918459,135.63460776323078,0.10344742,0.1,328.2532,1626728161438
Fix,GT,37.468703,-122.2918468,135.621,0.43373895,0.1,328.11072,1626728162438
Fix,GT,37.4687098,-122.2918527,135.61060776335,1.6121063,0.1,327.24643,1626728163438
Fix,GT,37.4687282,-122.291869,135.60855278158186,3.3675919,0.1,325.24457,1626728164438
Fix,GT,37.4687565,-122.2918988,135.64944317486882,4.7795687,0.1,319.29077,1626728165438
Fix,GT,37.468785,-122.2919482,135.85404249888657,5.965859,0.1,302.31924,1626728166438
Fix,GT,37.4687961,-122.29202,136.0118819617033,7.0156,0.1,275.40735,1626728167438
Fix,GT,37.4687817,-122.2921032,136.05961180359125,8.066396,0.1,252.34877,1626728168438
Fix,GT,37.4687432,-122.2921888,136.04521955239773,9.472455,0.1,236.72021,1626728169438
Fix,GT,37.4686824,-122.2922761,136.05760774835943,11.033098,0.1,225.57553,1626728170438
Fix,GT,37.4686059,-122.2923656,136.03328262096642,12.154406,0.1,222.60974,1626728171438
Fix,GT,37.4685223,-122.2924629,135.9309109238088,13.072775,0.1,222.89478,1626728172438
Fix,GT,37.4684352,-122.2925677,135.6818053306639,13.65135,0.1,224.57988,1626728173438
Fix,GT,37.4683501,-122.2926804,135.34730749291182,13.803858,0.1,227.91035,1626728174438
Fix,GT,37.4682701,-122.2927994,134.88653510829806,13.6692705,0.1,230.17838,1626728175438
Fix,GT,37.4681891,-122.2929126,134.32587269598247,13.206539,0.1,225.82301,1626728176438
Fix,GT,37.4681075,-122.2930128,133.72576709008217,12.092312,0.1,224.03978,1626728177438
Fix,GT,37.4680352,-122.2931074,133.02670806527138,11.155895,0.1,228.50467,1626728178438
Fix,GT,37.4679819,-122.2932044,132.35560245370863,9.707804,0.1,239.53488,1626728179438
Fix,GT,37.4679566,-122.2933037,131.53350925183298,9.049384,0.1,259.57874,1626728180438
Fix,GT,37.4679697,-122.2934055,130.84814281713963,9.285233,0.1,287.94998,1626728181438
Fix,GT,37.4680177,-122.2934987,130.65910949254035,10.678972,0.1,307.37848,1626728182438
Fix,GT,37.4680906,-122.2935937,130.72978029617667,12.529572,0.1,316.00894,1626728183438
Fix,GT,37.4681774,-122.2936934,130.85365840482712,13.520185,0.1,317.734,1626728184438
Fix,GT,37.4682712,-122.2937995,131.005426325351,14.56547,0.1,317.8801,1626728185438
Fix,GT,37.4683725,-122.2939133,131.4690179299414,15.51206,0.1,318.0572,1626728186438
Fix,GT,37.4684789,-122.2940312,132.08155835863948,15.785982,0.1,318.66336,1626728187438
Fix,GT,37.4685864,-122.2941426,132.80617410743235,15.012613,0.1,322.1589,1626728188438
Fix,GT,37.4686945,-122.2942306,133.53089153653383,13.612125,0.1,331.3396,1626728189438
Fix,GT,37.4688055,-122.2942814,134.360667963624,12.750544,0.1,345.97522,1626728190438
Fix,GT,37.4689177,-122.2942903,135.24599719125032,12.366735,0.1,2.1657715,1626728191438
Fix,GT,37.4690261,-122.2942613,136.08205620384217,12.421414,0.1,17.820679,1626728192438
Fix,GT,37.4691263,-122.2941949,136.89366394835713,12.794792,0.1,33.69455,1626728193438
Fix,GT,37.4692109,-122.294094,137.69222497591377,13.171738,0.1,49.2995,1626728194438
Fix,GT,37.4692722,-122.2939661,138.5161619029045,13.2177,0.1,65.15787,1626728195438
Fix,GT,37.4693015,-122.2938226,139.27827988708017,13.145449,0.1,82.08353,1626728196438
Fix,GT,37.4692958,-122.2936738,140.06827990567686,13.330474,0.1,99.29541,1626728197438
Fix,GT,37.4692546,-122.2935313,140.7770054858327,13.595554,0.1,116.54721,1626728198438
Fix,GT,37.4691818,-122.2934039,141.4318493013084,14.341427,0.1,130.40082,1626728199438
Fix,GT,37.4690869,-122.2932848,141.98573946619035,15.484575,0.1,136.72931,1626728200438
Fix,GT,37.4689786,-122.2931635,142.4852498790622,16.792671,0.1,139.09558,1626728201438
Fix,GT,37.4688571,-122.2930373,142.91936359351874,18.215002,0.1,141.14047,1626728202438
Fix,GT,37.4687218,-122.2929061,143.19238820546866,19.796926,0.1,142.77487,1626728203438
Fix,GT,37.468572,-122.2927684,143.1001179423332,21.230215,0.1,144.62439,1626728204438
Fix,GT,37.4684098,-122.2926319,142.9490165517926,22.089512,0.1,147.27045,1626728205438
Fix,GT,37.4682369,-122.2925011,142.76129058676958,22.749598,0.1,150.0242,1626728206438
Fix,GT,37.4680544,-122.2923757,142.55334955409168,23.518087,0.1,152.14465,1626728207438
Fix,GT,37.467861,-122.2922538,142.32295331263543,24.56477,0.1,154.06018,1626728208438
Fix,GT,37.4676559,-122.2921339,142.11501650977135,25.646732,0.1,155.62665,1626728209438
Fix,GT,37.46744,-122.2920173,141.89218493044376,26.450022,0.1,157.50793,1626728210438
Fix,GT,37.4672154,-122.2919058,141.56958158057927,27.169025,0.1,159.03174,1626728211438
Fix,GT,37.4669825,-122.2917988,141.35384763759373,27.87433,0.1,160.43433,1626728212438
Fix,GT,37.4667424,-122.2916952,141.08702451515197,28.425625,0.1,161.31665,1626728213438
Fix,GT,37.4664985,-122.2915957,140.80861984679103,28.379498,0.1,162.52411,1626728214438
Fix,GT,37.466255,-122.2915034,140.50874195325375,28.102867,0.1,163.68744,1626728215438
Fix,GT,37.4660122,-122.2914192,140.21884343534708,27.815882,0.1,165.28491,1626728216438
Fix,GT,37.4657699,-122.2913453,139.9885183557868,27.539677,0.1,167.13257,1626728217438
Fix,GT,37.4655278,-122.291281,139.70451834934948,27.430279,0.1,168.86469,1626728218438
Fix,GT,37.4652841,-122.2912255,139.44013429018855,27.63169,0.1,170.3443,1626728219438
Fix,GT,37.4650362,-122.2911771,139.10745938527586,28.055779,0.1,171.74084,1626728220438
Fix,GT,37.4647835,-122.2911361,138.82041265004872,28.520866,0.1,173.28162,1626728221438
Fix,GT,37.4645258,-122.2911031,138.453020303756,28.985697,0.1,174.836,1626728222438
Fix,GT,37.4642634,-122.2910776,138.05207925453783,29.432724,0.1,176.15051,1626728223438
Fix,GT,37.4639968,-122.2910594,137.6590285140574,29.827848,0.1,177.4159,1626728224438
Fix,GT,37.4637271,-122.2910475,137.30724798381328,30.022173,0.1,178.22888,1626728225438
Fix,GT,37.4634575,-122.291038,136.86659351551532,29.831352,0.1,178.23315,1626728226438
Fix,GT,37.4631895,-122.291028,136.3208170643151,29.699057,0.1,178.14136,1626728227438
Fix,GT,37.4629223,-122.2910177,135.77926418879628,29.654902,0.1,178.10779,1626728228438
Fix,GT,37.4626554,-122.2910073,135.2085934303403,29.609617,0.1,178.16821,1626728229438
Fix,GT,37.4623892,-122.2909968,134.83173782831432,29.502453,0.1,178.10022,1626728230438
Fix,GT,37.4621242,-122.2909859,134.5430751258433,29.363836,0.1,178.15997,1626728231438
Fix,GT,37.4618604,-122.2909746,134.29974583762885,29.223843,0.1,177.79736,1626728232438
Fix,GT,37.4615978,-122.2909585,133.9391462020576,29.12365,0.1,176.34094,1626728233438
Fix,GT,37.4613366,-122.2909319,133.4139268093109,29.080513,0.1,174.27386,1626728234438
Fix,GT,37.4610764,-122.2908939,132.81509145250917,29.07537,0.1,172.71277,1626728235438
Fix,GT,37.4608169,-122.2908492,132.21054254853726,29.070782,0.1,171.5722,1626728236438
Fix,GT,37.4605586,-122.2907963,131.64870324528215,29.011776,0.1,169.68384,1626728237438
Fix,GT,37.4603025,-122.2907316,131.0726360822916,28.980534,0.1,167.5434,1626728238438
Fix,GT,37.4600488,-122.2906565,130.53726000642774,28.873627,0.1,165.78973,1626728239438
Fix,GT,37.4597983,-122.2905715,129.8935386184752,28.776146,0.1,163.74677,1626728240438
Fix,GT,37.4595507,-122.2904754,129.32125613000989,28.748703,0.1,161.87457,1626728241438
Fix,GT,37.459306,-122.2903706,128.75964434820412,28.66708,0.1,160.35803,1626728242438
Fix,GT,37.459064,-122.2902567,128.24903639292717,28.682682,0.1,158.4342,1626728243438
Fix,GT,37.4588251,-122.2901331,127.6846443605721,28.691826,0.1,156.76294,1626728244438
Fix,GT,37.4585889,-122.2900012,127.09138156852126,28.71497,0.1,155.15674,1626728245438
Fix,GT,37.4583556,-122.2898603,126.46570706391336,28.756319,0.1,153.32764,1626728246438
Fix,GT,37.4581258,-122.2897098,125.8946443811357,28.788528,0.1,151.44318,1626728247438
Fix,GT,37.4579001,-122.2895494,125.34065185996889,28.821882,0.1,149.41675,1626728248438
Fix,GT,37.4576772,-122.2893804,124.82375012233854,29.01523,0.1,148.16266,1626728249438
Fix,GT,37.457456,-122.2892027,124.3585302657485,29.283718,0.1,146.54468,1626728250438
Fix,GT,37.4572374,-122.2890151,124.02068649977446,29.49596,0.1,144.63501,1626728251438
Fix,GT,37.4570225,-122.2888174,123.79529458165167,29.663984,0.1,142.66919,1626728252438
Fix,GT,37.4568121,-122.2886095,123.64267069852352,29.797436,0.1,140.85217,1626728253438
Fix,GT,37.4566062,-122.2883924,123.57910573625564,29.8997,0.1,138.95734,1626728254438
Fix,GT,37.4564055,-122.2881663,123.66998790979385,29.964981,0.1,136.94196,1626728255438
Fix,GT,37.4562115,-122.2879307,123.9028737783432,29.968338,0.1,134.85138,1626728256438
Fix,GT,37.456024,-122.2876872,124.21558761280777,29.955967,0.1,133.0914,1626728257438
Fix,GT,37.4558426,-122.2874368,124.62846979594232,29.923222,0.1,131.3833,1626728258438
Fix,GT,37.4556666,-122.2871806,125.0511404967904,29.905012,0.1,130.04901,1626728259438
Fix,GT,37.4554942,-122.2869207,125.32292528244852,29.926952,0.1,129.54971,1626728260438
Fix,GT,37.4553223,-122.28666,125.6325324714482,29.937828,0.1,129.36853,1626728261438
Fix,GT,37.4551507,-122.2863991,126.11380289188024,29.947775,0.1,129.48505,1626728262438
Fix,GT,37.4549784,-122.2861375,126.76733617281914,30.08445,0.1,129.5044,1626728263438
Fix,GT,37.4548047,-122.2858752,127.42456352353096,30.283154,0.1,129.74469,1626728264438
Fix,GT,37.4546294,-122.285611,128.1008421818018,30.565603,0.1,129.55923,1626728265438
Fix,GT,37.4544538,-122.2853443,128.7641164159775,30.603977,0.1,129.29297,1626728266438
Fix,GT,37.4542788,-122.2850765,129.42395562636852,30.684504,0.1,129.27203,1626728267438
Fix,GT,37.4541031,-122.2848083,130.10817921707033,30.67281,0.1,129.31238,1626728268438
Fix,GT,37.4539283,-122.2845425,130.76000679072737,30.358738,0.1,129.5904,1626728269438
Fix,GT,37.4537537,-122.284278,131.41961855971817,30.449028,0.1,129.40424,1626728270438
Fix,GT,37.4535788,-122.2840118,132.10701069688798,30.6005,0.1,129.52826,1626728271438
Fix,GT,37.4534021,-122.283745,132.81650863978268,30.78041,0.1,129.60815,1626728272438
Fix,GT,37.4532246,-122.2834763,133.48173632490636,30.977488,0.1,129.49213,1626728273438
Fix,GT,37.4530466,-122.2832052,134.11284606552124,31.160862,0.1,129.28241,1626728274438
Fix,GT,37.4528678,-122.2829324,134.69818743133544,31.319172,0.1,129.34543,1626728275438
Fix,GT,37.4526891,-122.2826608,135.22563052681087,30.995144,0.1,129.43307,1626728276438
Fix,GT,37.4525118,-122.2823911,135.696634560585,30.873936,0.1,129.36084,1626728277438
Fix,GT,37.4523352,-122.2821215,136.13781126236915,30.899502,0.1,129.24603,1626728278438
Fix,GT,37.4521587,-122.2818512,136.49074829882383,30.949139,0.1,129.17844,1626728279438
Fix,GT,37.4519819,-122.2815803,136.8093132097721,30.973953,0.1,129.22815,1626728280438
Fix,GT,37.4518052,-122.281311,137.04154084682463,30.810333,0.1,129.51727,1626728281438
Fix,GT,37.4516276,-122.2810429,137.2468192141056,30.899164,0.1,129.66693,1626728282438
Fix,GT,37.4514494,-122.2807734,137.3850468648076,31.05801,0.1,129.51358,1626728283438
Fix,GT,37.4512708,-122.2805024,137.47832932293414,31.183079,0.1,129.37872,1626728284438
Fix,GT,37.4510922,-122.2802289,137.50977644109724,31.36448,0.1,129.01099,1626728285438
Fix,GT,37.4509137,-122.2799529,137.4819490342736,31.540611,0.1,128.95529,1626728286438
Fix,GT,37.4507338,-122.2796754,137.37328245449066,31.770891,0.1,129.09662,1626728287438
Fix,GT,37.4505516,-122.2793969,137.2094002456069,31.997087,0.1,129.46545,1626728288438
Fix,GT,37.4503668,-122.2791174,136.95212981295583,32.245182,0.1,129.52881,1626728289438
Fix,GT,37.4501816,-122.2788361,136.7071887061596,32.20788,0.1,129.5297,1626728290438
Fix,GT,37.4499976,-122.2785568,136.2497615662217,31.905045,0.1,129.43784,1626728291438
Fix,GT,37.4498159,-122.27828,135.90890219721197,31.559132,0.1,129.35663,1626728292438
Fix,GT,37.4496362,-122.2780059,135.4638165304661,31.263592,0.1,129.33844,1626728293438
Fix,GT,37.4494576,-122.2777344,134.93673755899073,31.05178,0.1,129.55331,1626728294438
Fix,GT,37.4492792,-122.2774654,134.38048715665937,30.879084,0.1,129.81189,1626728295438
Fix,GT,37.4491005,-122.2771981,133.71820873248578,30.877472,0.1,129.98547,1626728296438
Fix,GT,37.4489209,-122.2769312,132.99987941604851,30.938803,0.1,130.20776,1626728297438
Fix,GT,37.4487397,-122.2766649,132.19655404382945,31.02502,0.1,130.69293,1626728298438
Fix,GT,37.4485562,-122.2763997,131.30628360533717,31.11728,0.1,130.9942,1626728299438
Fix,GT,37.4483713,-122.2761349,130.4236757068634,31.164158,0.1,131.24997,1626728300438
Fix,GT,37.4481856,-122.2758705,129.54284033539892,31.193474,0.1,131.26141,1626728301438
Fix,GT,37.4479996,-122.2756063,128.64589151260256,31.206627,0.1,131.41125,1626728302438
Fix,GT,37.4478135,-122.2753418,127.72983645009997,31.212315,0.1,131.17511,1626728303438
Fix,GT,37.4476285,-122.2750765,126.82605622234942,31.167599,0.1,130.99792,1626728304438
Fix,GT,37.4474441,-122.2748108,125.93144446060062,31.17994,0.1,130.9917,1626728305438
Fix,GT,37.4472592,-122.2745452,125.0426680316031,31.255545,0.1,131.14145,1626728306438
Fix,GT,37.4470729,-122.274279,124.14460916030409,31.435966,0.1,131.26361,1626728307438
Fix,GT,37.4468849,-122.2740113,123.3233304118514,31.714174,0.1,131.32333,1626728308438
Fix,GT,37.4466949,-122.2737411,122.59382440721988,32.03685,0.1,131.27823,1626728309438
Fix,GT,37.4465032,-122.273468,121.98003596484662,32.376083,0.1,131.19586,1626728310438
Fix,GT,37.4463103,-122.2731928,121.5585768661499,32.378242,0.1,131.45706,1626728311438
Fix,GT,37.446117,-122.2729193,121.28652159494162,32.360435,0.1,131.41159,1626728312438
Fix,GT,37.4459245,-122.2726435,121.0246826453209,32.511383,0.1,130.65442,1626728313438
Fix,GT,37.4457349,-122.2723625,120.9178942141533,32.599823,0.1,129.59875,1626728314438
Fix,GT,37.4455517,-122.2720766,120.85845070862769,32.305565,0.1,127.862976,1626728315438
Fix,GT,37.4453772,-122.2717861,120.8076153769195,32.079613,0.1,126.154175,1626728316438
Fix,GT,37.4452106,-122.2714918,120.85249401175976,31.750427,0.1,124.52817,1626728317438
Fix,GT,37.4450528,-122.271195,120.97943513274194,31.421253,0.1,122.759705,1626728318438
Fix,GT,37.4449038,-122.2708946,121.22581138432024,31.220419,0.1,120.95688,1626728319438
Fix,GT,37.4447626,-122.2705908,121.5300974434018,31.019394,0.1,119.32391,1626728320438
Fix,GT,37.4446295,-122.2702838,121.89352896022795,30.810509,0.1,117.69745,1626728321438
Fix,GT,37.4445039,-122.2699747,122.24842317008972,30.603325,0.1,116.16339,1626728322438
Fix,GT,37.4443859,-122.2696635,122.64203860345484,30.408596,0.1,114.56116,1626728323438
Fix,GT,37.4442761,-122.2693497,122.8545915147066,30.251507,0.1,112.821655,1626728324438
Fix,GT,37.4441738,-122.2690339,123.25442318344116,30.051987,0.1,111.32532,1626728325438
Fix,GT,37.4440794,-122.2687171,123.64025024190543,29.857224,0.1,109.63934,1626728326438
Fix,GT,37.4439924,-122.2683985,123.96514446392656,29.715834,0.1,107.999084,1626728327438
Fix,GT,37.4439132,-122.2680787,124.31681143152711,29.56948,0.1,106.46744,1626728328438
Fix,GT,37.4438403,-122.2677581,124.66781515145304,29.445583,0.1,105.32086,1626728329438
Fix,GT,37.4437735,-122.2674363,125.0071445182264,29.436882,0.1,103.72531,1626728330438
Fix,GT,37.4437143,-122.267112,125.35581144332886,29.437834,0.1,101.96539,1626728331438
Fix,GT,37.443663,-122.2667858,125.68619967496396,29.41088,0.1,100.248505,1626728332438
Fix,GT,37.4436195,-122.266458,126.01764677560328,29.410664,0.1,98.6131,1626728333438
Fix,GT,37.4435832,-122.2661287,126.29664301648737,29.428223,0.1,97.0614,1626728334438
Fix,GT,37.4435539,-122.265798,126.57776452422142,29.453201,0.1,95.642395,1626728335438
Fix,GT,37.4435309,-122.2654663,126.76670565974712,29.473572,0.1,94.15814,1626728336438
Fix,GT,37.443515,-122.2651339,126.93765493628382,29.475447,0.1,92.643524,1626728337438
Fix,GT,37.4435064,-122.2648007,127.0556587202549,29.531975,0.1,90.98514,1626728338438
Fix,GT,37.4435053,-122.2644667,127.10061177313328,29.595129,0.1,89.480255,1626728339438
Fix,GT,37.4435113,-122.2641317,127.037,29.70144,0.1,87.90808,1626728340438
Fix,GT,37.4435242,-122.2637961,127.08111772716046,29.767433,0.1,86.42615,1626728341438
Fix,GT,37.4435439,-122.2634603,127.00677266979216,29.835915,0.1,85.10336,1626728342438
Fix,GT,37.4435714,-122.2631245,126.90441203254464,29.91298,0.1,83.04004,1626728343438
Fix,GT,37.4436074,-122.2627887,126.6041922544241,30.074125,0.1,81.68652,1626728344438
Fix,GT,37.4436468,-122.2624521,126.26074514862896,30.05269,0.1,81.68915,1626728345438
Fix,GT,37.443684,-122.262117,125.92640826150776,29.788116,0.1,82.25647,1626728346438
Fix,GT,37.4437193,-122.2617841,125.613909807384,29.721502,0.1,82.25159,1626728347438
Fix,GT,37.4437552,-122.2614509,125.40284346383812,29.788193,0.1,82.176025,1626728348438
Fix,GT,37.4437914,-122.2611169,125.21445896828176,29.880436,0.1,82.12042,1626728349438
Fix,GT,37.4438284,-122.2607819,125.0341802944243,29.972176,0.1,81.93878,1626728350438
Fix,GT,37.443866,-122.2604461,124.83468622648716,30.044476,0.1,81.93704,1626728351438
Fix,GT,37.4439027,-122.2601092,124.56141198039056,30.119864,0.1,82.45245,1626728352438
Fix,GT,37.4439361,-122.2597711,124.18759223762154,30.192465,0.1,83.172424,1626728353438
Fix,GT,37.4439658,-122.2594318,123.74614144349098,30.193623,0.1,84.39728,1626728354438
Fix,GT,37.4439865,-122.259092,123.26197674918174,30.163473,0.1,86.65088,1626728355438
Fix,GT,37.4439981,-122.2587511,122.72909444606304,30.229301,0.1,88.2746,1626728356438
Fix,GT,37.4440009,-122.258409,122.11721213644742,30.318619,0.1,90.46628,1626728357438
Fix,GT,37.4439932,-122.2580658,121.42643566817044,30.445927,0.1,92.445404,1626728358438
Fix,GT,37.4439767,-122.2577225,120.6557216384411,30.390726,0.1,94.3631,1626728359438
Fix,GT,37.4439509,-122.2573814,119.82683214101196,30.241743,0.1,96.34668,1626728360438
Fix,GT,37.4439159,-122.2570434,118.93811809659005,30.117363,0.1,98.20676,1626728361438
Fix,GT,37.4438722,-122.256708,117.96734162390231,30.02536,0.1,100.2681,1626728362438
Fix,GT,37.4438196,-122.2563754,116.91545580917597,30.016106,0.1,101.99283,1626728363438
Fix,GT,37.4437585,-122.2560445,115.8152911361456,30.10368,0.1,103.90393,1626728364438
Fix,GT,37.4436886,-122.2557153,114.62508287405969,30.214437,0.1,105.90231,1626728365438
Fix,GT,37.4436096,-122.2553877,113.37402062439918,30.366234,0.1,107.74057,1626728366438
Fix,GT,37.4435207,-122.2550623,112.14185929203036,30.54118,0.1,109.90488,1626728367438
Fix,GT,37.443422,-122.2547387,110.88569456720352,30.766792,0.1,111.80859,1626728368438
Fix,GT,37.4433143,-122.254417,109.62608278393743,30.9987,0.1,113.554474,1626728369438
Fix,GT,37.4431979,-122.2540974,108.37346775850654,31.198082,0.1,115.47986,1626728370438
Fix,GT,37.4430721,-122.2537808,107.08924423164127,31.403393,0.1,117.33014,1626728371438
Fix,GT,37.4429371,-122.2534678,105.82252977120876,31.574991,0.1,119.390656,1626728372438
Fix,GT,37.4427919,-122.2531599,104.561635602355,31.738604,0.1,121.66254,1626728373438
Fix,GT,37.4426363,-122.252858,103.2728591146469,31.89233,0.1,124.016754,1626728374438
Fix,GT,37.4424706,-122.2525627,101.98553272300958,31.988266,0.1,126.12302,1626728375438
Fix,GT,37.4422967,-122.2522747,100.7620737912655,31.943241,0.1,128.012,1626728376438
Fix,GT,37.4421157,-122.2519947,99.47530905357004,31.890915,0.1,129.92285,1626728377438
Fix,GT,37.4419268,-122.2517235,98.10646784096956,31.841682,0.1,132.0758,1626728378438
Fix,GT,37.4417321,-122.2514602,96.95468536639214,31.716028,0.1,133.43185,1626728379438
Fix,GT,37.4415347,-122.251202,95.81618549013136,31.593899,0.1,133.8097,1626728380438
Fix,GT,37.4413374,-122.2509452,94.55624995806812,31.532438,0.1,133.88483,1626728381438
Fix,GT,37.4411406,-122.2506885,93.29024711298942,31.525723,0.1,133.73175,1626728382438
Fix,GT,37.4409441,-122.2504314,92.05857649421692,31.495615,0.1,133.63647,1626728383438
Fix,GT,37.440748,-122.2501744,90.79992034605144,31.481228,0.1,133.70496,1626728384438
Fix,GT,37.4405517,-122.2499177,89.57424969229102,31.466736,0.1,133.78064,1626728385438
Fix,GT,37.4403553,-122.2496613,88.28847052407265,31.466696,0.1,133.70349,1626728386438
Fix,GT,37.4401591,-122.2494047,87.05047308629752,31.44426,0.1,133.68414,1626728387438
Fix,GT,37.4399632,-122.2491481,85.84096457719802,31.424555,0.1,133.65002,1626728388438
Fix,GT,37.4397673,-122.248892,84.64669646683336,31.391926,0.1,133.92865,1626728389438
Fix,GT,37.4395699,-122.248638,83.33080905011296,31.397045,0.1,134.4834,1626728390438
Fix,GT,37.439371,-122.2483854,81.96969631135464,31.4158,0.1,134.6424,1626728391438
Fix,GT,37.4391714,-122.2481338,80.72130799111724,31.40275,0.1,134.8916,1626728392438
Fix,GT,37.4389709,-122.2478835,79.42413846349716,31.394093,0.1,135.19006,1626728393438
Fix,GT,37.43877,-122.2476351,78.19024437442422,31.18948,0.1,135.43011,1626728394438
Fix,GT,37.4385705,-122.247391,76.84674081218243,30.5848,0.1,135.90308,1626728395438
Fix,GT,37.4383746,-122.2471561,75.78963487517834,29.5749,0.1,136.92316,1626728396438
Fix,GT,37.4381795,-122.2469353,74.59451500803232,28.86949,0.1,138.71228,1626728397438
Fix,GT,37.4379831,-122.2467261,73.37118558230996,28.298439,0.1,140.14905,1626728398438
Fix,GT,37.4377894,-122.2465258,72.1646464779377,27.390102,0.1,140.51373,1626728399438
Fix,GT,37.4376014,-122.2463328,71.07101342284679,26.548847,0.1,140.54199,1626728400438
Fix,GT,37.4374186,-122.2461453,69.9788957657218,25.882446,0.1,140.89685,1626728401438
Fix,GT,37.4372401,-122.2459635,69.01656627345085,25.192522,0.1,140.96463,1626728402438
Fix,GT,37.4370664,-122.245786,67.95746029448509,24.530804,0.1,140.76062,1626728403438
Fix,GT,37.4368984,-122.2456112,66.8855190334618,23.970675,0.1,140.08398,1626728404438
Fix,GT,37.436734,-122.2454358,65.68042275118827,23.982939,0.1,139.1568,1626728405438
Fix,GT,37.436571,-122.2452573,64.40869337117672,24.00184,0.1,138.5951,1626728406438
Fix,GT,37.4364102,-122.2450795,63.081742357134814,23.528305,0.1,138.49847,1626728407438
Fix,GT,37.4362535,-122.2449059,61.86496397566796,22.896114,0.1,138.4917,1626728408438
Fix,GT,37.4361005,-122.2447362,60.69202273887396,22.45929,0.1,138.36847,1626728409438
Fix,GT,37.4359501,-122.2445696,59.55045987811685,22.125027,0.1,138.47537,1626728410438
Fix,GT,37.4358025,-122.2444054,58.55067170986533,21.606329,0.1,138.33652,1626728411438
Fix,GT,37.4356606,-122.2442478,57.83058615922928,20.207954,0.1,138.57452,1626728412438
Fix,GT,37.4355317,-122.2441063,57.42068046671152,17.896368,0.1,138.89493,1626728413438
Fix,GT,37.435418,-122.2439822,57.20778640991449,15.550828,0.1,139.00864,1626728414438
Fix,GT,37.4353205,-122.2438751,57.00101332515478,13.169633,0.1,138.24768,1626728415438
Fix,GT,37.4352448,-122.2437797,56.78468385797738,10.773174,0.1,131.98053,1626728416438
Fix,GT,37.435197,-122.2436861,56.54717803519964,9.06886,0.1,116.66724,1626728417438
Fix,GT,37.4351808,-122.2435879,56.33796612820029,8.821965,0.1,94.17459,1626728418438
Fix,GT,37.4352009,-122.2434923,56.163798037797214,8.938629,0.1,67.50473,1626728419438
Fix,GT,37.4352441,-122.2433997,55.82235268259049,10.1819935,0.1,58.653015,1626728420438
Fix,GT,37.4352947,-122.2432964,55.49063331329823,11.131375,0.1,58.41571,1626728421438
Fix,GT,37.4353481,-122.2431862,55.103856827259065,11.623119,0.1,58.732544,1626728422438
Fix,GT,37.435402,-122.2430729,54.71246858978272,11.697863,0.1,59.364105,1626728423438
Fix,GT,37.4354549,-122.2429589,54.3341978994906,11.531345,0.1,59.74182,1626728424438
Fix,GT,37.435506,-122.2428488,53.93102318263054,10.97308,0.1,59.815857,1626728425438
Fix,GT,37.4355544,-122.2427448,53.54885844320059,10.225619,0.1,59.64325,1626728426438
Fix,GT,37.4355968,-122.2426549,53.25012913203239,8.069045,0.1,59.462982,1626728427438
Fix,GT,37.4356281,-122.2425883,53.02423351085186,5.6634603,0.1,59.457794,1626728428438
Fix,GT,37.4356488,-122.2425447,52.86673087394238,3.3394642,0.1,59.32962,1626728429438
Fix,GT,37.4356596,-122.2425224,52.78267052471637,1.4158955,0.1,58.792908,1626728430438
Fix,GT,37.4356633,-122.2425153,52.753613326102496,0.28386968,0.1,58.217346,1626728431438
Fix,GT,37.4356638,-122.2425144,52.746998428016894,0.039422892,0.1,58.07669,1626728432438
Fix,GT,37.4356639,-122.2425143,52.7460015719533,0.0047950586,0.1,58.065094,1626728433438
Fix,GT,37.4356639,-122.2425143,52.745,0.0011608171,0.1,58.065063,1626728434438
Fix,GT,37.4356639,-122.2425143,52.745001571923495,0.0012533965,0.1,58.06555,1626728435438
Fix,GT,37.4356639,-122.2425143,52.74499999999999,0.001,0.1,58.06537,1626728436438
Fix,GT,37.4356639,-122.2425143,52.74499999999999,0.001,0.1,58.06549,1626728437438
Fix,GT,37.4356639,-122.2425143,52.745001571923495,0.0010000002,0.1,58.065582,1626728438438
Fix,GT,37.4356639,-122.2425143,52.745,0.001,0.1,58.06537,1626728439438
Fix,GT,37.4356639,-122.2425143,52.745,0.001,0.1,58.065247,1626728440438
Fix,GT,37.4356639,-122.2425143,52.745,0.001,0.1,58.065216,1626728441438
Fix,GT,37.4356639,-122.2425143,52.745001571923495,0.001,0.1,58.06534,1626728442438
Fix,GT,37.4356639,-122.2425143,52.7449984280765,0.00038824845,0.1,58.06537,1626728443438
Fix,GT,37.4356639,-122.2425143,52.74500157192349,0.0,0.1,58.065277,1626728444438
Fix,GT,37.4356639,-122.2425143,52.7449984280765,0.001,0.1,58.065277,1626728445438
Fix,GT,37.4356639,-122.2425143,52.745001571923495,0.0012533957,0.1,58.065216,1626728446438
Fix,GT,37.4356639,-122.2425143,52.745001571923495,0.001,0.1,58.065308,1626728447438
Fix,GT,37.4356639,-122.2425143,52.745,0.0,0.1,58.065308,1626728448438
Fix,GT,37.4356639,-122.2425143,52.745,0.0,0.1,58.065125,1626728449438
