MessageType,Provider,LatitudeDegrees,LongitudeDegrees,AltitudeMeters,SpeedMps,AccuracyMeters,BearingDegrees,UnixTimeMillis
Fix,GT,37.4441062,-122.2327687,10.852,0.0005827841,0.1,30.257172,1626727758441
Fix,GT,37.4441062,-122.2327687,10.852000323414805,0.001,0.1,30.257355,1626727759441
Fix,GT,37.4441062,-122.2327687,10.851,0.001,0.1,30.257416,1626727760441
Fix,GT,37.4441063,-122.2327687,10.850999676615,0.0014142136,0.1,30.257507,1626727761441
Fix,GT,37.4441063,-122.2327687,10.850999676615,0.0014142136,0.1,30.257446,1626727762441
Fix,GT,37.4441063,-122.2327687,10.851,0.0014142136,0.1,30.257294,1626727763441
Fix,GT,37.4441063,-122.2327687,10.851,0.0018973895,0.1,30.256653,1626727764441
Fix,GT,37.4441063,-122.2327687,10.855824504643678,0.1216516,0.1,30.364777,1626727765441
Fix,GT,37.4441039,-122.2327721,10.848587909400464,0.58558995,0.1,26.758179,1626727766441
Fix,GT,37.4440987,-122.2327794,10.83317549586296,0.91276634,0.1,16.965118,1626727767441
Fix,GT,37.4440903,-122.232787,10.811175496518612,1.0622503,0.1,3.9086304,1626727768441
Fix,GT,37.4440822,-122.2327915,10.788175818562507,0.61157167,0.1,352.90216,1626727769441
Fix,GT,37.4440796,-122.2327923,10.783412090718748,0.036158442,0.1,349.75226,1626727770441
Fix,GT,37.4440802,-122.2327926,10.775412411928176,0.36697513,0.1,349.27145,1626727771441
Fix,GT,37.444087,-122.2327987,10.794060454189776,1.4463453,0.1,340.056,1626727772441
Fix,GT,37.4440965,-122.232818,10.814175818324088,2.3214877,0.1,315.34296,1626727773441
Fix,GT,37.444099,-122.2328502,10.765290861248973,3.2427583,0.1,283.41486,1626727774441
Fix,GT,37.4440882,-122.2328892,10.699879090428354,3.8796525,0.1,252.91115,1626727775441
Fix,GT,37.4440631,-122.2329212,10.598290865153077,3.853445,0.1,226.25769,1626727776441
Fix,GT,37.4440377,-122.2329383,10.50052714034915,2.303986,0.1,211.04915,1626727777441
Fix,GT,37.4440215,-122.2329484,10.435763415634632,2.2110069,0.1,208.4015,1626727778441
Fix,GT,37.4440018,-122.2329613,10.343285632014274,2.753378,0.1,207.65805,1626727779441
Fix,GT,37.4439748,-122.2329783,10.302466690659523,4.012534,0.1,206.8631,1626727780441
Fix,GT,37.4439393,-122.2330012,10.2235274528265,4.5617027,0.1,207.16711,1626727781441
Fix,GT,37.4439047,-122.2330253,10.154939846277236,4.159631,0.1,209.45068,1626727782441
Fix,GT,37.4438772,-122.2330505,10.08670326948166,3.208775,0.1,215.71309,1626727783441
Fix,GT,37.4438604,-122.23307,9.985642812132834,1.9732038,0.1,221.3335,1626727784441
Fix,GT,37.4438502,-122.2330901,9.85623072075844,2.223801,0.1,232.60019,1626727785441
Fix,GT,37.4438467,-122.23312,9.722115650832652,2.956914,0.1,255.28369,1626727786441
Fix,GT,37.4438533,-122.2331623,9.693763726055622,4.480651,0.1,279.23264,1626727787441
Fix,GT,37.4438743,-122.233219,9.576642812132835,6.501787,0.1,295.23672,1626727788441
Fix,GT,37.443906,-122.2332937,9.33493398976326,8.389506,0.1,298.82242,1626727789441
Fix,GT,37.4439474,-122.2333803,9.115813076019286,9.437727,0.1,301.33948,1626727790441
Fix,GT,37.4439944,-122.233476,8.85493398976326,10.3478155,0.1,301.5967,1626727791441
Fix,GT,37.4440443,-122.2335765,8.549994446635246,10.661812,0.1,302.10803,1626727792441
Fix,GT,37.4440967,-122.2336799,8.295527451753617,10.94099,0.1,302.56003,1626727793441
Fix,GT,37.4441505,-122.2337842,8.08928562426567,11.01568,0.1,303.22504,1626727794441
Fix,GT,37.4442054,-122.2338875,7.853521898388863,10.877319,0.1,303.61508,1626727795441
Fix,GT,37.4442574,-122.2339863,7.620758173704146,9.933265,0.1,303.26797,1626727796441
Fix,GT,37.4443035,-122.2340738,7.448406538963319,8.64439,0.1,303.43234,1626727797441
Fix,GT,37.4443424,-122.2341486,7.269994232296943,6.965164,0.1,302.26306,1626727798441
Fix,GT,37.4443676,-122.2342052,7.162878874152899,4.4647255,0.1,298.6503,1626727799441
Fix,GT,37.4443826,-122.2342397,7.088,2.689782,0.1,298.39728,1626727800441
Fix,GT,37.4443911,-122.2342596,7.049763936638832,1.2872946,0.1,298.41272,1626727801441
Fix,GT,37.4443935,-122.2342652,7.031763517081738,0.043632217,0.1,298.42017,1626727802441
Fix,GT,37.4443935,-122.2342652,7.025000209361315,0.0025843212,0.1,298.4228,1626727803441
Fix,GT,37.4443935,-122.2342652,7.02700020942092,0.003578077,0.1,298.42245,1626727804441
Fix,GT,37.4443935,-122.2342652,7.02700020942092,0.0020972816,0.1,298.42078,1626727805441
Fix,GT,37.4443935,-122.2342651,7.027,0.0018973891,0.1,298.42075,1626727806441
Fix,GT,37.4443935,-122.2342651,7.027,0.0008314286,0.1,298.42084,1626727807441
Fix,GT,37.4443935,-122.2342651,7.027,0.0011706938,0.1,298.42072,1626727808441
Fix,GT,37.4443935,-122.2342651,7.026999790579081,0.0008314285,0.1,298.42044,1626727809441
Fix,GT,37.4443935,-122.2342651,7.026999790579081,0.0012435197,0.1,298.42047,1626727810441
Fix,GT,37.4443935,-122.2342651,7.026999790579081,0.001897389,0.1,298.42053,1626727811441
Fix,GT,37.4443935,-122.2342651,7.0280000000000005,0.0014142136,0.1,298.4206,1626727812441
Fix,GT,37.4443935,-122.2342651,7.028000209450722,0.0017266953,0.1,298.4207,1626727813441
Fix,GT,37.4443944,-122.234267,7.008527661949396,0.8635682,0.1,298.401,1626727814441
Fix,GT,37.4444039,-122.2342912,6.962466996848583,3.907402,0.1,296.7013,1626727815441
Fix,GT,37.4444191,-122.2343443,6.931884638369083,5.7771587,0.1,288.4264,1626727816441
Fix,GT,37.444426,-122.2344159,7.002121121406556,7.072874,0.1,273.78943,1626727817441
Fix,GT,37.4444136,-122.2344984,7.15847831261158,7.88043,0.1,254.03491,1626727818441
Fix,GT,37.4443746,-122.234581,7.220120913743973,9.247467,0.1,233.60918,1626727819441
Fix,GT,37.4443098,-122.2346546,7.340945096492767,10.2929535,0.1,217.81395,1626727820441
Fix,GT,37.4442262,-122.2347233,7.570950649857521,11.951567,0.1,212.23938,1626727821441
Fix,GT,37.4441281,-122.2347972,7.899599017322063,13.347366,0.1,209.88748,1626727822441
Fix,GT,37.4440186,-122.2348718,8.287483907431366,14.284443,0.1,207.81944,1626727823441
Fix,GT,37.4439,-122.2349485,8.802483662128449,15.459503,0.1,207.0689,1626727824441
Fix,GT,37.443771,-122.2350314,9.123363020807506,16.562193,0.1,206.99644,1626727825441
Fix,GT,37.4436344,-122.2351197,9.380769283413889,17.595806,0.1,207.37021,1626727826441
Fix,GT,37.44349,-122.2352149,9.509120917320253,18.55151,0.1,207.74165,1626727827441
Fix,GT,37.4433402,-122.235315,9.656181664019822,18.881071,0.1,208.0464,1626727828441
Fix,GT,37.4431917,-122.2354152,9.832593469619752,18.527304,0.1,208.20502,1626727829441
Fix,GT,37.4430467,-122.2355133,10.058654229015112,18.05884,0.1,208.08008,1626727830441
Fix,GT,37.4429034,-122.2356091,10.353599035024644,18.026537,0.1,207.9201,1626727831441
Fix,GT,37.4427599,-122.2357046,10.823016696572305,18.019403,0.1,207.69693,1626727832441
Fix,GT,37.4426158,-122.2357991,11.49449515849352,18.084538,0.1,207.35645,1626727833441
Fix,GT,37.4424718,-122.2358927,12.331621682375667,17.806982,0.1,207.34291,1626727834441
Fix,GT,37.4423323,-122.235984,13.394330156087875,17.138268,0.1,207.55966,1626727835441
Fix,GT,37.4421985,-122.2360726,14.406561305969952,16.402857,0.1,208.02678,1626727836441
Fix,GT,37.4420706,-122.2361595,15.246791590452194,15.973949,0.1,208.57866,1626727837441
Fix,GT,37.4419444,-122.2362469,16.018615785598755,16.006084,0.1,208.882,1626727838441
Fix,GT,37.4418187,-122.2363351,16.760846988737583,15.973317,0.1,209.21384,1626727839441
Fix,GT,37.4416921,-122.2364252,17.432137147784232,16.428473,0.1,209.09143,1626727840441
Fix,GT,37.4415601,-122.2365184,18.12784597155452,17.33914,0.1,209.44504,1626727841441
Fix,GT,37.4414247,-122.2366225,18.959439445436,17.874783,0.1,213.28038,1626727842441
Fix,GT,37.4412916,-122.2367446,19.8853851416111,18.709898,0.1,217.9396,1626727843441
Fix,GT,37.4411592,-122.2368833,20.84014887309074,19.59013,0.1,221.38858,1626727844441
Fix,GT,37.4410287,-122.2370393,21.95186824914813,20.406462,0.1,225.09787,1626727845441
Fix,GT,37.4409026,-122.2372123,23.131979366272688,20.87052,0.1,229.59369,1626727846441
Fix,GT,37.4407881,-122.2373996,24.342159382522105,20.921448,0.1,234.453,1626727847441
Fix,GT,37.4406814,-122.2375958,25.602044783592223,21.077477,0.1,236.2236,1626727848441
Fix,GT,37.4405771,-122.237795,26.82509487175941,21.045635,0.1,236.64691,1626727849441
Fix,GT,37.4404705,-122.2379907,28.12340288183093,20.91011,0.1,234.3707,1626727850441
Fix,GT,37.4403566,-122.2381786,29.404039235293865,20.882534,0.1,231.74733,1626727851441
Fix,GT,37.4402386,-122.2383625,30.52109412783384,20.934475,0.1,230.64124,1626727852441
Fix,GT,37.4401168,-122.238544,31.570148066461087,21.069794,0.1,229.22787,1626727853441
Fix,GT,37.4399898,-122.2387233,32.64397883117199,21.379623,0.1,227.545,1626727854441
Fix,GT,37.4398566,-122.2388976,33.74579641628265,21.344244,0.1,225.10791,1626727855441
Fix,GT,37.4397194,-122.2390657,34.66079743552208,21.228321,0.1,223.3511,1626727856441
Fix,GT,37.4395791,-122.2392268,35.72362726044655,20.868483,0.1,221.31163,1626727857441
Fix,GT,37.439437,-122.2393746,36.91045147275925,20.178852,0.1,218.50735,1626727858441
Fix,GT,37.4392955,-122.239515,38.030038262963295,19.87566,0.1,217.86061,1626727859441
Fix,GT,37.4391531,-122.2396484,39.03615027594567,19.605003,0.1,215.88203,1626727860441
Fix,GT,37.4390087,-122.2397745,39.91421080556512,19.45635,0.1,214.01059,1626727861441
Fix,GT,37.4388625,-122.2398939,40.801029399722815,19.285242,0.1,212.22652,1626727862441
Fix,GT,37.4387145,-122.2400076,41.51543342006207,19.33702,0.1,210.74554,1626727863441
Fix,GT,37.4385621,-122.240117,42.02931495416165,19.624481,0.1,208.89772,1626727864441
Fix,GT,37.4384045,-122.2402206,42.4904838719368,19.866772,0.1,206.57729,1626727865441
Fix,GT,37.438242,-122.2403175,42.83806485643983,20.09198,0.1,204.5221,1626727866441
Fix,GT,37.438075,-122.240409,43.067828563243154,20.36809,0.1,202.87442,1626727867441
Fix,GT,37.4379041,-122.2404956,43.22829806712269,20.513165,0.1,201.3887,1626727868441
Fix,GT,37.4377318,-122.2405779,43.39429807397723,20.46415,0.1,200.12898,1626727869441
Fix,GT,37.4375585,-122.2406585,43.43270321750641,20.551134,0.1,200.44301,1626727870441
Fix,GT,37.4373855,-122.2407424,43.69913231158256,20.618216,0.1,201.68077,1626727871441
Fix,GT,37.4372138,-122.2408322,44.05589733862877,20.64479,0.1,203.0517,1626727872441
Fix,GT,37.4370457,-122.2409271,44.51695652675629,20.224442,0.1,205.20818,1626727873441
Fix,GT,37.4368853,-122.2410305,45.07026467561722,19.808002,0.1,208.69026,1626727874441
Fix,GT,37.4367348,-122.2411469,45.75143482303619,19.370243,0.1,214.36665,1626727875441
Fix,GT,37.4365996,-122.2412795,46.54314234313369,18.69669,0.1,221.00954,1626727876441
Fix,GT,37.4364812,-122.2414249,47.19290316352248,18.065845,0.1,226.19241,1626727877441
Fix,GT,37.4363744,-122.2415742,47.75707615333796,17.418879,0.1,229.14984,1626727878441
Fix,GT,37.4362761,-122.2417221,48.44526052507758,16.611048,0.1,230.8574,1626727879441
Fix,GT,37.4361883,-122.2418667,49.14678796306252,15.5393715,0.1,233.38939,1626727880441
Fix,GT,37.4361105,-122.2420039,49.75484279412031,14.037045,0.1,235.69165,1626727881441
Fix,GT,37.4360496,-122.2421289,50.35172032123805,11.734737,0.1,240.31232,1626727882441
Fix,GT,37.4360093,-122.2422334,50.72683562636375,8.825415,0.1,246.512,1626727883441
Fix,GT,37.4359883,-122.2423129,51.01247832232714,6.0732346,0.1,253.38339,1626727884441
Fix,GT,37.4359793,-122.242366,51.19535731571913,3.572109,0.1,258.56335,1626727885441
Fix,GT,37.4359762,-122.242395,51.27941057312489,1.9440159,0.1,261.2829,1626727886441
Fix,GT,37.4359743,-122.2424179,51.327648406267166,2.3234968,0.1,263.26938,1626727887441
Fix,GT,37.4359727,-122.2424571,51.408943688631055,4.783839,0.1,266.57867,1626727888441
Fix,GT,37.4359738,-122.2425243,51.57506624233723,6.936575,0.1,272.04355,1626727889441
Fix,GT,37.4359828,-122.242609,51.89090346947312,8.045444,0.1,279.2746,1626727890441
Fix,GT,37.4360018,-122.2427021,52.3060704317987,9.041561,0.1,285.82056,1626727891441
Fix,GT,37.4360293,-122.2428051,52.68354304522276,10.103663,0.1,289.06195,1626727892441
Fix,GT,37.4360631,-122.2429171,53.210376159667966,11.040591,0.1,291.4474,1626727893441
Fix,GT,37.4361029,-122.2430353,53.78472457230091,11.626148,0.1,293.46964,1626727894441
Fix,GT,37.4361473,-122.2431568,54.421257702380416,11.961295,0.1,295.1241,1626727895441
Fix,GT,37.4361938,-122.2432767,55.1240230281353,11.551857,0.1,296.02313,1626727896441
Fix,GT,37.4362387,-122.2433901,55.76837628930807,10.948472,0.1,296.27048,1626727897441
Fix,GT,37.4362826,-122.2435005,56.393550433874125,10.944587,0.1,296.5453,1626727898441
Fix,GT,37.436328,-122.243612,56.99931413310766,11.2895565,0.1,297.20868,1626727899441
Fix,GT,37.4363774,-122.2437279,57.692849009692665,11.950199,0.1,298.48694,1626727900441
Fix,GT,37.4364312,-122.2438465,58.409023097038265,12.16434,0.1,300.03967,1626727901441
Fix,GT,37.4364892,-122.2439647,59.14849749612809,12.409871,0.1,302.47476,1626727902441
Fix,GT,37.4365531,-122.2440817,59.86125943130254,12.7012005,0.1,305.41824,1626727903441
Fix,GT,37.4366227,-122.2441979,60.6182047021389,13.000477,0.1,307.48123,1626727904441
Fix,GT,37.4366973,-122.2443134,61.41414601886272,13.282397,0.1,309.7447,1626727905441
Fix,GT,37.4367769,-122.2444274,62.25102708551288,13.543015,0.1,311.75177,1626727906441
Fix,GT,37.43686,-122.2445417,63.09667737364769,13.821078,0.1,312.46744,1626727907441
Fix,GT,37.436945,-122.2446574,63.9492028542161,14.007921,0.1,312.6258,1626727908441
Fix,GT,37.4370313,-122.2447753,64.72755635809898,14.342184,0.1,312.24863,1626727909441
Fix,GT,37.4371194,-122.244897,65.47231230393052,14.767736,0.1,312.15198,1626727910441
Fix,GT,37.4372105,-122.2450223,66.15849585556984,15.238491,0.1,312.4212,1626727911441
Fix,GT,37.4373053,-122.2451512,66.83519902205467,15.830092,0.1,312.78415,1626727912441
Fix,GT,37.4374044,-122.245285,67.51743535768986,16.479755,0.1,312.71298,1626727913441
Fix,GT,37.4375076,-122.2454241,68.20202123349905,17.135569,0.1,313.20874,1626727914441
Fix,GT,37.4376157,-122.2455665,68.91384544268251,17.533085,0.1,313.67026,1626727915441
Fix,GT,37.4377256,-122.2457089,69.63343540704251,17.551682,0.1,314.22723,1626727916441
Fix,GT,37.4378362,-122.2458502,70.38949596142768,17.494308,0.1,314.18732,1626727917441
Fix,GT,37.4379447,-122.2459935,71.17214441502094,17.55906,0.1,312.70526,1626727918441
Fix,GT,37.4380524,-122.246142,71.89332021737098,17.969347,0.1,312.04565,1626727919441
Fix,GT,37.4381641,-122.2462953,72.68120283144714,18.784525,0.1,312.71722,1626727920441
Fix,GT,37.4382817,-122.2464508,73.46620282784104,19.186813,0.1,313.90854,1626727921441
Fix,GT,37.4384049,-122.2466078,74.30585569015145,19.600323,0.1,314.8707,1626727922441
Fix,GT,37.4385303,-122.2467624,75.1095566264987,19.423054,0.1,315.6716,1626727923441
Fix,GT,37.4386559,-122.246915,75.84473243564366,19.38279,0.1,315.89407,1626727924441
Fix,GT,37.4387804,-122.2470664,76.62373474350572,19.065388,0.1,315.68286,1626727925441
Fix,GT,37.4389026,-122.2472171,77.3839105732441,19.04398,0.1,315.1313,1626727926441
Fix,GT,37.4390243,-122.2473696,78.14932040309907,19.196928,0.1,314.83154,1626727927441
Fix,GT,37.4391475,-122.2475249,78.9233809800744,19.591034,0.1,314.6703,1626727928441
Fix,GT,37.4392731,-122.2476843,79.71661497050525,20.075638,0.1,314.5757,1626727929441
Fix,GT,37.439401,-122.2478468,80.52479554596543,20.36007,0.1,314.4764,1626727930441
Fix,GT,37.4395306,-122.2480117,81.3422052859068,20.564388,0.1,314.50766,1626727931441
Fix,GT,37.439661,-122.2481772,82.16179320335388,20.590168,0.1,314.60114,1626727932441
Fix,GT,37.4397915,-122.2483429,82.9770270960629,20.685362,0.1,314.49762,1626727933441
Fix,GT,37.4399223,-122.2485108,83.80120537495613,20.834526,0.1,314.05264,1626727934441
Fix,GT,37.4400532,-122.2486802,84.66485133314131,20.908186,0.1,313.94788,1626727935441
Fix,GT,37.4401841,-122.2488505,85.52320542937518,21.001709,0.1,313.78018,1626727936441
Fix,GT,37.4403154,-122.2490227,86.39909282791614,21.159027,0.1,313.53195,1626727937441
Fix,GT,37.440447,-122.2491959,87.2386201994419,21.164185,0.1,313.5541,1626727938441
Fix,GT,37.4405787,-122.2493687,88.10344448453188,21.123585,0.1,313.71994,1626727939441
Fix,GT,37.4407105,-122.2495409,88.93726346597074,21.125504,0.1,313.7932,1626727940441
Fix,GT,37.4408427,-122.2497131,89.76196922206879,21.246252,0.1,313.87427,1626727941441
Fix,GT,37.4409767,-122.2498866,90.61044194447994,21.462555,0.1,314.0578,1626727942441
Fix,GT,37.4411118,-122.2500617,91.46262046551703,21.694298,0.1,313.92978,1626727943441
Fix,GT,37.4412485,-122.250239,92.31650533515216,21.94291,0.1,313.95645,1626727944441
Fix,GT,37.4413866,-122.2504182,93.21797532051802,22.173264,0.1,313.88403,1626727945441
Fix,GT,37.4415258,-122.2505996,94.21145086097718,22.366539,0.1,313.79,1626727946441
Fix,GT,37.4416659,-122.2507828,95.23127516296506,22.548777,0.1,313.7374,1626727947441
Fix,GT,37.441807,-122.2509676,96.26068734893202,22.735807,0.1,313.76218,1626727948441
Fix,GT,37.4419492,-122.2511535,97.32150875234603,22.8172,0.1,313.74545,1626727949441
Fix,GT,37.4420905,-122.2513401,98.33103608036042,22.724537,0.1,313.22153,1626727950441
Fix,GT,37.4422287,-122.2515289,99.31038763582706,22.65049,0.1,311.8825,1626727951441
Fix,GT,37.4423627,-122.2517215,100.20567859375475,22.614868,0.1,310.3123,1626727952441
Fix,GT,37.4424923,-122.2519184,101.12008772978186,22.575916,0.1,308.99377,1626727953441
Fix,GT,37.442618,-122.2521184,102.01309077179432,22.495861,0.1,307.4069,1626727954441
Fix,GT,37.4427387,-122.2523222,102.8982090267837,22.446854,0.1,305.8496,1626727955441
Fix,GT,37.4428546,-122.2525296,103.78126967409251,22.391209,0.1,304.3127,1626727956441
Fix,GT,37.442966,-122.2527402,104.65291820296645,22.348904,0.1,302.8771,1626727957441
Fix,GT,37.443073,-122.2529538,105.52285450607538,22.299868,0.1,301.4748,1626727958441
Fix,GT,37.4431757,-122.25317,106.40226664781572,22.255928,0.1,300.13992,1626727959441
Fix,GT,37.4432747,-122.2533887,107.2672634756863,22.25909,0.1,299.06,1626727960441
Fix,GT,37.4433701,-122.2536099,108.13544245195388,22.267227,0.1,297.7654,1626727961441
Fix,GT,37.4434613,-122.2538341,109.02085459423066,22.2738,0.1,296.34528,1626727962441
Fix,GT,37.4435479,-122.2540609,109.91626673173904,22.235378,0.1,294.91925,1626727963441
Fix,GT,37.4436299,-122.2542894,110.7966788802147,22.121384,0.1,293.55548,1626727964441
Fix,GT,37.4437069,-122.2545193,111.65903373053668,22.016665,0.1,292.09332,1626727965441
Fix,GT,37.443779,-122.2547509,112.5188546668291,22.042835,0.1,290.64438,1626727966441
Fix,GT,37.4438463,-122.2549843,113.37661831402778,21.766571,0.1,289.3135,1626727967441
Fix,GT,37.4439088,-122.2552152,114.22485130262372,21.531605,0.1,288.20203,1626727968441
Fix,GT,37.4439674,-122.2554474,115.10185471868516,21.545471,0.1,287.03284,1626727969441
Fix,GT,37.444022,-122.2556806,115.92762181547285,21.467468,0.1,285.70764,1626727970441
Fix,GT,37.4440719,-122.2559144,116.77079065051674,21.373253,0.1,284.2982,1626727971441
Fix,GT,37.444117,-122.2561487,117.60296989440918,21.288033,0.1,282.91074,1626727972441
Fix,GT,37.4441573,-122.2563834,118.40997343423962,21.205292,0.1,281.51715,1626727973441
Fix,GT,37.4441931,-122.2566182,119.16308859866857,21.130735,0.1,280.29004,1626727974441
Fix,GT,37.4442249,-122.2568533,119.874264380455,21.074944,0.1,279.1576,1626727975441
Fix,GT,37.4442532,-122.2570887,120.54878448417784,21.077871,0.1,278.01703,1626727976441
Fix,GT,37.4442773,-122.2573249,121.19719659698008,21.079773,0.1,276.60046,1626727977441
Fix,GT,37.4442966,-122.2575619,121.82707897281648,21.073273,0.1,275.2097,1626727978441
Fix,GT,37.4443112,-122.2577993,122.4260789794922,21.09446,0.1,273.75555,1626727979441
Fix,GT,37.4443212,-122.2580376,122.95466686141492,21.152637,0.1,272.39148,1626727980441
Fix,GT,37.4443269,-122.2582769,123.4684304933548,21.219036,0.1,271.14038,1626727981441
Fix,GT,37.4443283,-122.2585171,123.9539577496052,21.300621,0.1,269.7879,1626727982441
Fix,GT,37.444325,-122.2587585,124.39989712953567,21.45694,0.1,268.31714,1626727983441
Fix,GT,37.444317,-122.2590017,124.77283650827408,21.636877,0.1,267.10364,1626727984441
Fix,GT,37.4443052,-122.2592471,125.08553578144311,21.869919,0.1,265.991,1626727985441
Fix,GT,37.4442896,-122.2594948,125.33730313670634,22.130943,0.1,264.9724,1626727986441
Fix,GT,37.4442706,-122.2597463,125.55865463733672,22.585907,0.1,264.2144,1626727987441
Fix,GT,37.4442503,-122.2600019,125.73759401226044,22.85867,0.1,264.32956,1626727988441
Fix,GT,37.4442302,-122.2602602,125.87729325598478,23.087227,0.1,264.33954,1626727989441
Fix,GT,37.4442097,-122.2605214,125.97006438460946,23.412216,0.1,264.2818,1626727990441
Fix,GT,37.4441885,-122.2607872,126.06994175824522,23.77927,0.1,264.0868,1626727991441
Fix,GT,37.4441668,-122.2610533,126.20159402370452,23.524935,0.1,264.0739,1626727992441
Fix,GT,37.4441451,-122.2613157,126.37442204645276,23.163786,0.1,263.94672,1626727993441
Fix,GT,37.4441235,-122.261574,126.54959025862811,22.790651,0.1,263.8704,1626727994441
Fix,GT,37.4441022,-122.261828,126.69347276246548,22.425655,0.1,264.04553,1626727995441
Fix,GT,37.4440823,-122.2620782,126.82459403705596,22.066765,0.1,264.2968,1626727996441
Fix,GT,37.4440629,-122.2623244,126.95335765743256,21.712084,0.1,264.26978,1626727997441
Fix,GT,37.444044,-122.2625666,127.07588489371535,21.369122,0.1,264.3822,1626727998441
Fix,GT,37.444026,-122.2628052,127.13952723252774,21.04211,0.1,264.60077,1626727999441
Fix,GT,37.4440089,-122.2630402,127.2092363844514,20.720642,0.1,264.72388,1626728000441
Fix,GT,37.4439921,-122.2632715,127.32812128388882,20.391384,0.1,264.67383,1626728001441
Fix,GT,37.443975,-122.2634993,127.4047091576457,20.11147,0.1,264.4074,1626728002441
Fix,GT,37.4439575,-122.2637238,127.47641831958292,19.789177,0.1,264.34583,1626728003441
Fix,GT,37.443941,-122.2639462,127.51923258706928,19.835506,0.1,264.8113,1626728004441
Fix,GT,37.4439267,-122.2641722,127.55558787059783,20.278172,0.1,265.86877,1626728005441
Fix,GT,37.4439164,-122.2644035,127.54576361107826,20.724594,0.1,267.50394,1626728006441
Fix,GT,37.4439116,-122.2646398,127.517587870121,21.09893,0.1,268.93015,1626728007441
Fix,GT,37.4439104,-122.2648786,127.4691112895906,21.161186,0.1,270.0913,1626728008441
Fix,GT,37.4439132,-122.2651198,127.40393934762476,21.554989,0.1,271.19614,1626728009441
Fix,GT,37.4439197,-122.2653657,127.306642300725,21.99424,0.1,272.30865,1626728010441
Fix,GT,37.4439305,-122.2656163,127.18122637495398,22.41393,0.1,273.57816,1626728011441
Fix,GT,37.4439464,-122.2658712,127.02099376672508,22.829361,0.1,275.05524,1626728012441
Fix,GT,37.4439678,-122.2661302,126.80492932462693,23.265842,0.1,276.41324,1626728013441
Fix,GT,37.4439946,-122.2663936,126.5573996451497,23.726055,0.1,277.80106,1626728014441
Fix,GT,37.4440266,-122.2666621,126.25981176567078,24.351536,0.1,278.90216,1626728015441
Fix,GT,37.4440636,-122.2669366,125.9278117580414,24.89671,0.1,280.0642,1626728016441
Fix,GT,37.4441062,-122.2672155,125.5935716033876,25.352837,0.1,281.42706,1626728017441
Fix,GT,37.4441555,-122.2674975,125.2215146689415,25.725346,0.1,283.07672,1626728018441
Fix,GT,37.4442124,-122.2677802,124.86333892416954,25.780827,0.1,284.93182,1626728019441
Fix,GT,37.4442755,-122.2680598,124.50469037735462,25.609602,0.1,286.47546,1626728020441
Fix,GT,37.444344,-122.2683351,124.11575103569032,25.426338,0.1,287.9764,1626728021441
Fix,GT,37.4444179,-122.2686058,123.75198742806911,25.238152,0.1,289.50763,1626728022441
Fix,GT,37.4444967,-122.2688722,123.38833888113498,25.046543,0.1,290.9391,1626728023441
Fix,GT,37.4445804,-122.2691346,123.01033519995212,25.020214,0.1,292.43506,1626728024441
Fix,GT,37.4446698,-122.2693958,122.56969396689534,25.31873,0.1,293.72458,1626728025441
Fix,GT,37.4447643,-122.2696579,122.19422015154362,25.540195,0.1,294.73312,1626728026441
Fix,GT,37.4448636,-122.2699191,121.83663955172896,25.680851,0.1,295.96857,1626728027441
Fix,GT,37.4449686,-122.2701791,121.52563953530787,25.87587,0.1,297.35965,1626728028441
Fix,GT,37.4450791,-122.270438,121.19739588230848,26.084373,0.1,298.77197,1626728029441
Fix,GT,37.4451963,-122.2706947,120.9087536611259,26.239681,0.1,300.64703,1626728030441
Fix,GT,37.4453202,-122.2709483,120.69440221080184,26.382406,0.1,302.08536,1626728031441
Fix,GT,37.4454502,-122.271199,120.56005435276032,26.533745,0.1,303.76767,1626728032441
Fix,GT,37.4455867,-122.2714462,120.4390543498993,26.667566,0.1,305.40417,1626728033441
Fix,GT,37.4457295,-122.2716893,120.42276358675956,26.765356,0.1,307.0673,1626728034441
Fix,GT,37.4458776,-122.2719286,120.47935779458284,26.834686,0.1,308.29974,1626728035441
Fix,GT,37.44603,-122.2721641,120.67265490394831,26.849527,0.1,309.5941,1626728036441
Fix,GT,37.4461864,-122.2723955,120.91071199923756,26.79944,0.1,310.61807,1626728037441
Fix,GT,37.446345,-122.2726234,121.21024913412332,26.734722,0.1,311.12952,1626728038441
Fix,GT,37.4465031,-122.2728507,121.57683338218928,26.666729,0.1,311.0721,1626728039441
Fix,GT,37.4466612,-122.273077,121.94306979769468,26.593557,0.1,311.13916,1626728040441
Fix,GT,37.4468189,-122.2733027,122.3603742055893,26.511806,0.1,311.18405,1626728041441
Fix,GT,37.4469764,-122.2735272,122.84843493029476,26.400455,0.1,311.265,1626728042441
Fix,GT,37.4471327,-122.273751,123.37166770392656,26.268257,0.1,311.0226,1626728043441
Fix,GT,37.4472878,-122.2739742,123.95978912013769,26.131092,0.1,310.95752,1626728044441
Fix,GT,37.4474422,-122.2741961,124.61920498734712,25.993332,0.1,311.0968,1626728045441
Fix,GT,37.4475961,-122.2744164,125.3274984138012,25.850416,0.1,311.1437,1626728046441
Fix,GT,37.4477493,-122.2746354,126.05726200854778,25.715904,0.1,311.16974,1626728047441
Fix,GT,37.4479018,-122.2748533,126.77232650187612,25.592262,0.1,311.17322,1626728048441
Fix,GT,37.4480534,-122.2750701,127.51531893897057,25.43142,0.1,311.24734,1626728049441
Fix,GT,37.4482049,-122.2752858,128.23997132492065,25.447273,0.1,311.295,1626728050441
Fix,GT,37.4483569,-122.2755016,128.99609018835426,25.513569,0.1,311.4576,1626728051441
Fix,GT,37.4485106,-122.2757175,129.7144377924204,25.736969,0.1,311.7676,1626728052441
Fix,GT,37.4486659,-122.2759349,130.43909025746584,25.9189,0.1,311.74277,1626728053441
Fix,GT,37.4488219,-122.2761535,131.173674243927,25.963352,0.1,311.59747,1626728054441
Fix,GT,37.4489757,-122.2763737,131.92255532571673,25.851229,0.1,310.74237,1626728055441
Fix,GT,37.449127,-122.2765955,132.64343784588576,25.821022,0.1,310.10666,1626728056441
Fix,GT,37.4492769,-122.2768194,133.34896500098705,25.932932,0.1,309.86053,1626728057441
Fix,GT,37.4494273,-122.2770443,134.00502173671126,25.999092,0.1,309.9038,1626728058441
Fix,GT,37.449577,-122.2772679,134.63231645411253,25.609917,0.1,309.81934,1626728059441
Fix,GT,37.4497231,-122.2774889,135.14389385390282,25.204548,0.1,309.39062,1626728060441
Fix,GT,37.4498664,-122.2777072,135.5857828950882,24.830456,0.1,309.33914,1626728061441
Fix,GT,37.4500077,-122.2779229,136.01831004071238,24.634827,0.1,309.36792,1626728062441
Fix,GT,37.4501488,-122.278138,136.4043059848249,24.696564,0.1,309.29053,1626728063441
Fix,GT,37.4502904,-122.2783539,136.80143795281649,24.716408,0.1,309.4843,1626728064441
Fix,GT,37.4504322,-122.2785683,137.2135400454998,24.601864,0.1,309.75842,1626728065441
Fix,GT,37.4505739,-122.2787813,137.49694573664664,24.519789,0.1,309.65497,1626728066441
Fix,GT,37.4507158,-122.2789947,137.71594984325768,24.666683,0.1,309.73407,1626728067441
Fix,GT,37.4508581,-122.2792101,137.8707659228146,24.838654,0.1,309.40662,1626728068441
Fix,GT,37.451001,-122.2794273,137.96688090577723,25.011719,0.1,309.49902,1626728069441
Fix,GT,37.4511457,-122.2796453,137.9916485824585,25.167248,0.1,309.72818,1626728070441
Fix,GT,37.4512911,-122.2798641,138.0212364373803,25.264843,0.1,309.56354,1626728071441
Fix,GT,37.4514364,-122.2800847,138.03558785396814,25.353075,0.1,309.41095,1626728072441
Fix,GT,37.4515819,-122.2803061,138.01094338190558,25.44418,0.1,309.2444,1626728073441
Fix,GT,37.4517267,-122.2805298,137.96105424261094,25.4863,0.1,308.718,1626728074441
Fix,GT,37.4518703,-122.2807538,137.84046638578178,25.439905,0.1,308.78015,1626728075441
Fix,GT,37.4520149,-122.2809773,137.70116920727492,25.478333,0.1,309.18762,1626728076441
Fix,GT,37.4521609,-122.2811998,137.484112564981,25.544945,0.1,309.54324,1626728077441
Fix,GT,37.4523086,-122.2814224,137.22169222286345,25.716042,0.1,309.74146,1626728078441
Fix,GT,37.4524572,-122.2816469,136.89680719238518,25.959278,0.1,309.45895,1626728079441
Fix,GT,37.4526065,-122.2818747,136.54016267204287,26.23648,0.1,309.2288,1626728080441
Fix,GT,37.4527571,-122.2821056,136.1516897740364,26.55769,0.1,309.16653,1626728081441
Fix,GT,37.4529099,-122.2823394,135.70386546707152,26.956125,0.1,309.32727,1626728082441
Fix,GT,37.4530657,-122.2825763,135.20498041558267,27.387459,0.1,309.49658,1626728083441
Fix,GT,37.4532245,-122.2828166,134.64744676125048,27.870247,0.1,309.57422,1626728084441
Fix,GT,37.4533865,-122.283061,134.01479415273667,28.354733,0.1,309.62817,1626728085441
Fix,GT,37.453551,-122.2833093,133.39185490322112,28.777424,0.1,309.52206,1626728086441
Fix,GT,37.4537169,-122.2835627,132.74644671320914,29.227365,0.1,309.17645,1626728087441
Fix,GT,37.4538847,-122.2838198,132.12162239456177,29.538643,0.1,309.29633,1626728088441
Fix,GT,37.4540532,-122.2840776,131.4972141428888,29.407587,0.1,309.23883,1626728089441
Fix,GT,37.4542211,-122.2843337,130.82096985206007,29.29458,0.1,309.55145,1626728090441
Fix,GT,37.4543898,-122.2845881,130.18962621617317,29.277664,0.1,309.69,1626728091441
Fix,GT,37.4545587,-122.2848425,129.5411532741785,29.299023,0.1,309.67532,1626728092441
Fix,GT,37.4547274,-122.2850971,128.88585491389034,29.306465,0.1,309.55167,1626728093441
Fix,GT,37.4548954,-122.2853527,128.24827471223472,29.333826,0.1,309.27737,1626728094441
Fix,GT,37.455063,-122.2856094,127.59168682339788,29.37684,0.1,309.179,1626728095441
Fix,GT,37.455231,-122.2858665,126.90902780246734,29.440609,0.1,309.31906,1626728096441
Fix,GT,37.4554,-122.2861233,126.24403813692928,29.476156,0.1,309.40375,1626728097441
Fix,GT,37.4555688,-122.2863807,125.54314928126335,29.51389,0.1,309.1681,1626728098441
Fix,GT,37.4557378,-122.286639,124.78043987488746,29.630428,0.1,309.36536,1626728099441
Fix,GT,37.4559093,-122.2868967,124.0260847670436,29.765469,0.1,310.1322,1626728100441
Fix,GT,37.4560847,-122.2871521,123.35374735504388,29.865345,0.1,311.1967,1626728101441
Fix,GT,37.4562653,-122.2874025,122.89322321248056,29.883434,0.1,313.011,1626728102441
Fix,GT,37.4564528,-122.2876455,122.52381104660034,29.974388,0.1,315.1936,1626728103441
Fix,GT,37.4566488,-122.2878797,122.3064055185318,30.099148,0.1,317.2622,1626728104441
Fix,GT,37.4568521,-122.2881058,122.18735137820244,30.217724,0.1,319.2614,1626728105441
Fix,GT,37.4570615,-122.2883249,122.19812155747414,30.318592,0.1,320.9699,1626728106441
Fix,GT,37.4572765,-122.2885359,122.36106378728152,30.142784,0.1,322.89072,1626728107441
Fix,GT,37.4574957,-122.2887353,122.65960116130114,29.978933,0.1,324.86642,1626728108441
Fix,GT,37.4577188,-122.2889248,123.09443581786752,29.857628,0.1,326.78156,1626728109441
Fix,GT,37.4579463,-122.289104,123.61549295574426,29.7551,0.1,328.78543,1626728110441
Fix,GT,37.4581773,-122.2892732,124.21373314788936,29.613396,0.1,330.44016,1626728111441
Fix,GT,37.458411,-122.2894332,124.79508455550672,29.465668,0.1,332.29242,1626728112441
Fix,GT,37.4586477,-122.2895817,125.4194967522919,29.300346,0.1,334.39175,1626728113441
Fix,GT,37.4588872,-122.2897186,126.05355758410693,29.132751,0.1,336.4731,1626728114441
Fix,GT,37.459129,-122.2898451,126.64467921254038,29.00653,0.1,338.16406,1626728115441
Fix,GT,37.4593729,-122.2899615,127.21243227863312,28.912395,0.1,340.06714,1626728116441
Fix,GT,37.4596191,-122.2900673,127.73761469066145,28.845459,0.1,341.9276,1626728117441
Fix,GT,37.459867,-122.2901637,128.32249311542512,28.745827,0.1,343.4669,1626728118441
Fix,GT,37.4601157,-122.2902515,128.94084833836558,28.622072,0.1,345.09238,1626728119441
Fix,GT,37.4603659,-122.2903286,129.56055396306516,28.60067,0.1,347.11694,1626728120441
Fix,GT,37.4606187,-122.2903943,130.1926649801433,28.705824,0.1,349.26657,1626728121441
Fix,GT,37.4608744,-122.2904494,130.7646649827659,28.885239,0.1,351.12952,1626728122441
Fix,GT,37.4611329,-122.2904948,131.34543241500856,29.07706,0.1,352.8252,1626728123441
Fix,GT,37.4613944,-122.2905289,131.950970151186,29.241787,0.1,355.12482,1626728124441
Fix,GT,37.4616575,-122.290551,132.58332435774804,29.267252,0.1,356.99677,1626728125441
Fix,GT,37.4619208,-122.2905659,133.36874052852392,29.249065,0.1,357.69315,1626728126441
Fix,GT,37.4621842,-122.2905778,134.07531764274836,29.255497,0.1,358.06924,1626728127441
Fix,GT,37.4624478,-122.2905875,134.67955817377566,29.29806,0.1,358.32684,1626728128441
Fix,GT,37.462712,-122.2905965,135.258905531168,29.349367,0.1,358.4017,1626728129441
Fix,GT,37.4629765,-122.2906053,135.8379704247415,29.396717,0.1,358.39957,1626728130441
Fix,GT,37.4632412,-122.2906142,136.47231774473192,29.351027,0.1,358.49533,1626728131441
Fix,GT,37.4635045,-122.2906221,137.16232866880296,29.02605,0.1,358.56274,1626728132441
Fix,GT,37.4637638,-122.2906315,137.96026378595832,28.571873,0.1,358.0741,1626728133441
Fix,GT,37.4640192,-122.2906451,138.67255018767713,28.193363,0.1,357.05347,1626728134441
Fix,GT,37.4642717,-122.2906637,139.0994866733551,27.941204,0.1,356.24194,1626728135441
Fix,GT,37.4645215,-122.2906858,139.47524603316188,27.686836,0.1,355.7867,1626728136441
Fix,GT,37.4647694,-122.2907094,139.85583387169245,27.492458,0.1,355.52386,1626728137441
Fix,GT,37.4650154,-122.2907356,140.2004258850813,27.305794,0.1,354.69574,1626728138441
Fix,GT,37.4652591,-122.2907676,140.53412855118512,27.087288,0.1,353.15555,1626728139441
Fix,GT,37.4655004,-122.2908089,140.8240677188635,27.053844,0.1,351.37463,1626728140441
Fix,GT,37.4657409,-122.2908589,141.08341905128955,27.022964,0.1,349.96854,1626728141441
Fix,GT,37.4659802,-122.2909123,141.33961270979046,26.924324,0.1,350.13846,1626728142441
Fix,GT,37.4662185,-122.2909637,141.6809032099545,26.666,0.1,350.2365,1626728143441
Fix,GT,37.4664529,-122.2910148,141.9956058716476,26.059021,0.1,349.87918,1626728144441
Fix,GT,37.4666789,-122.2910687,142.33154079818726,25.01168,0.1,348.64914,1626728145441
Fix,GT,37.4668944,-122.291127,142.45593914079666,23.95832,0.1,347.1789,1626728146441
Fix,GT,37.4670993,-122.2911884,142.29904276245833,22.778797,0.1,345.96945,1626728147441
Fix,GT,37.4672921,-122.2912517,141.9744522242546,21.470734,0.1,344.87747,1626728148441
Fix,GT,37.467473,-122.2913153,141.40056277674438,20.244356,0.1,343.85886,1626728149441
Fix,GT,37.4676438,-122.291379,140.89833739757538,19.328001,0.1,343.06293,1626728150441
Fix,GT,37.4678053,-122.2914444,140.25232346010208,18.315563,0.1,341.17648,1626728151441
Fix,GT,37.4679559,-122.2915129,139.4517853452265,17.25392,0.1,339.28622,1626728152441
Fix,GT,37.4680962,-122.2915798,138.62031227946284,16.009027,0.1,339.38474,1626728153441
Fix,GT,37.4682268,-122.2916385,137.78872443744538,14.961939,0.1,340.8535,1626728154441
Fix,GT,37.4683503,-122.2916886,136.9720259141922,13.742176,0.1,342.71558,1626728155441
Fix,GT,37.4684609,-122.29173,136.3406277021766,11.764486,0.1,343.5823,1626728156441
Fix,GT,37.4685533,-122.2917645,135.94563468921186,9.652753,0.1,342.80786,1626728157441
Fix,GT,37.4686254,-122.2917957,135.74928635644912,7.1692953,0.1,339.39832,1626728158441
Fix,GT,37.4686719,-122.2918243,135.6835228881836,4.2964153,0.1,332.819,1626728159441
Fix,GT,37.4686945,-122.2918416,135.6411716005802,1.8198063,0.1,329.17047,1626728160441
Fix,GT,37.4687013,-122.2918473,135.63458377879857,0.100427724,0.1,328.25308,1626728161441
Fix,GT,37.4687024,-122.2918482,135.621,0.43548647,0.1,328.10977,1626728162441
Fix,GT,37.4687092,-122.2918541,135.61058377856017,1.6160985,0.1,327.243,1626728163441
Fix,GT,37.4687276,-122.2918704,135.6086446801722,3.3715656,0.1,325.23676,1626728164441
Fix,GT,37.4687558,-122.2919002,135.6493512766361,4.7827406,0.1,319.26736,1626728165441
Fix,GT,37.4687841,-122.2919493,135.85436240535972,5.9680066,0.1,302.2605,1626728166441
Fix,GT,37.4687949,-122.2920205,136.01212181854248,7.018527,0.1,275.34506,1626728167441
Fix,GT,37.4687804,-122.292103,136.0595918726623,8.069203,0.1,252.30405,1626728168441
Fix,GT,37.468742,-122.2921883,136.04517968904972,9.4765625,0.1,236.6896,1626728169441
Fix,GT,37.4686813,-122.2922752,136.05758781683443,11.036225,0.1,225.55699,1626728170441
Fix,GT,37.4686048,-122.2923647,136.03311471450328,12.156949,0.1,222.60948,1626728171441
Fix,GT,37.4685212,-122.292462,135.9302791623175,13.074074,0.1,222.89693,1626728172441
Fix,GT,37.468434,-122.292567,135.68098977079987,13.651935,0.1,224.58752,1626728173441
Fix,GT,37.4683489,-122.2926796,135.34627604442835,13.804258,0.1,227.92009,1626728174441
Fix,GT,37.4682689,-122.2927988,134.88545165294408,13.6684,0.1,230.17569,1626728175441
Fix,GT,37.468188,-122.2929118,134.32450139430165,13.204539,0.1,225.81177,1626728176441
Fix,GT,37.4681064,-122.293012,133.72420389312506,12.089336,0.1,224.04117,1626728177441
Fix,GT,37.4680341,-122.2931068,133.02526878476144,11.153822,0.1,228.52489,1626728178441
Fix,GT,37.4679806,-122.2932039,132.35397125697136,9.70544,0.1,239.56717,1626728179441
Fix,GT,37.4679554,-122.2933037,131.53125433981418,9.049793,0.1,259.6429,1626728180441
Fix,GT,37.4679685,-122.2934064,130.8470393358469,9.286311,0.1,288.0163,1626728181441
Fix,GT,37.4680169,-122.2934999,130.65930140423774,10.68412,0.1,307.4093,1626728182441
Fix,GT,37.46809,-122.2935952,130.72982048264146,12.532871,0.1,316.0174,1626728183441
Fix,GT,37.4681768,-122.2936949,130.85394237813352,13.522501,0.1,317.73492,1626728184441
Fix,GT,37.4682706,-122.2938009,131.00619009017944,14.568247,0.1,317.88058,1626728185441
Fix,GT,37.468372,-122.2939148,131.47019343581795,15.513584,0.1,318.0584,1626728186441
Fix,GT,37.4684784,-122.2940327,132.08326165112854,15.7850895,0.1,318.66583,1626728187441
Fix,GT,37.468586,-122.2941441,132.80785343074797,15.009949,0.1,322.17334,1626728188441
Fix,GT,37.4686943,-122.2942322,133.53273881512882,13.609489,0.1,331.37054,1626728189441
Fix,GT,37.4688056,-122.294283,134.3625672480166,12.749058,0.1,346.0152,1626728190441
Fix,GT,37.4689181,-122.2942918,135.24803241842983,12.366268,0.1,2.2026367,1626728191441
Fix,GT,37.4690268,-122.2942626,136.083975525856,12.422392,0.1,17.858276,1626728192441
Fix,GT,37.4691272,-122.2941959,136.89556745535137,12.79562,0.1,33.733093,1626728193441
Fix,GT,37.4692121,-122.2940946,137.69421220207215,13.172661,0.1,49.33667,1626728194441
Fix,GT,37.4692735,-122.2939663,138.51826910084486,13.217272,0.1,65.19702,1626728195441
Fix,GT,37.4693028,-122.2938223,139.2801513097286,13.145699,0.1,82.124756,1626728196441
Fix,GT,37.469297,-122.2936731,140.07014718043806,13.3310375,0.1,99.3367,1626728197441
Fix,GT,37.4692555,-122.2935302,140.77861722654103,13.596394,0.1,116.587036,1626728198441
Fix,GT,37.4691825,-122.2934025,141.43338066101074,14.343805,0.1,130.42517,1626728199441
Fix,GT,37.4690875,-122.2932833,141.98708310842514,15.487471,0.1,136.73682,1626728200441
Fix,GT,37.468979,-122.293162,142.4863733455539,16.795977,0.1,139.10223,1626728201441
Fix,GT,37.4688575,-122.2930357,142.92024711698295,18.218546,0.1,141.14694,1626728202441
Fix,GT,37.4687221,-122.2929044,143.19241219985486,19.80106,0.1,142.77771,1626728203441
Fix,GT,37.4685724,-122.2927667,143.09987799727918,21.232523,0.1,144.62982,1626728204441
Fix,GT,37.46841,-122.2926301,142.94858038651944,22.091187,0.1,147.27704,1626728205441
Fix,GT,37.4682371,-122.2924993,142.7606992250085,22.751228,0.1,150.0299,1626728206441
Fix,GT,37.4680545,-122.292374,142.5526381985843,23.520508,0.1,152.14886,1626728207441
Fix,GT,37.4678609,-122.292252,142.32263713112474,24.5673,0.1,154.06482,1626728208441
Fix,GT,37.4676558,-122.2921321,142.11457611823084,25.649529,0.1,155.63062,1626728209441
Fix,GT,37.4674398,-122.2920156,141.89139307045937,26.451754,0.1,157.51196,1626728210441
Fix,GT,37.4672152,-122.2919041,141.56880949020385,27.170723,0.1,159.03546,1626728211441
Fix,GT,37.4669822,-122.2917971,141.3533437191844,27.87586,0.1,160.43701,1626728212441
Fix,GT,37.4667421,-122.2916935,141.0861606464386,28.426737,0.1,161.31885,1626728213441
Fix,GT,37.4664982,-122.2915939,140.8081639138162,28.378824,0.1,162.52698,1626728214441
Fix,GT,37.4662547,-122.2915016,140.50804186168313,28.102215,0.1,163.69049,1626728215441
Fix,GT,37.4660118,-122.2914174,140.21834786134957,27.815304,0.1,165.29047,1626728216441
Fix,GT,37.4657695,-122.2913436,139.98787460803987,27.538937,0.1,167.13623,1626728217441
Fix,GT,37.4655274,-122.2912792,139.70387458992005,27.429934,0.1,168.86908,1626728218441
Fix,GT,37.4652837,-122.2912238,139.43946236225963,27.632557,0.1,170.34814,1626728219441
Fix,GT,37.4650357,-122.2911754,139.10693143928052,28.05691,0.1,171.7445,1626728220441
Fix,GT,37.4647829,-122.2911344,138.81957272970678,28.52195,0.1,173.2854,1626728221441
Fix,GT,37.4645252,-122.2911014,138.4521563792527,28.986816,0.1,174.83899,1626728222441
Fix,GT,37.4642627,-122.291076,138.0510994491577,29.4338,0.1,176.15375,1626728223441
Fix,GT,37.4639961,-122.2910579,137.65815637287497,29.828705,0.1,177.41858,1626728224441
Fix,GT,37.4637264,-122.2910459,137.3063319517374,30.021938,0.1,178.23029,1626728225441
Fix,GT,37.4634568,-122.2910363,136.86538950955867,29.83078,0.1,178.23303,1626728226441
Fix,GT,37.4631889,-122.2910264,136.31956507444383,29.69889,0.1,178.14124,1626728227441
Fix,GT,37.4629217,-122.2910161,135.7779202595055,29.654778,0.1,178.10767,1626728228441
Fix,GT,37.4626548,-122.2910057,135.20738543027642,29.609459,0.1,178.16809,1626728229441
Fix,GT,37.4623886,-122.2909951,134.83104185801744,29.502167,0.1,178.10004,1626728230441
Fix,GT,37.4621235,-122.2909842,134.5425191360116,29.363548,0.1,178.16028,1626728231441
Fix,GT,37.4618598,-122.2909731,134.29904986041785,29.223518,0.1,177.79498,1626728232441
Fix,GT,37.4615972,-122.2909569,133.93803824186324,29.123505,0.1,176.33636,1626728233441
Fix,GT,37.461336,-122.2909302,133.4124428255558,29.080399,0.1,174.26868,1626728234441
Fix,GT,37.4610759,-122.2908922,132.81367944544553,29.075424,0.1,172.71063,1626728235441
Fix,GT,37.4608163,-122.2908475,132.20903057551385,29.070662,0.1,171.56842,1626728236441
Fix,GT,37.4605581,-122.2907947,131.6472671968937,29.011757,0.1,169.6784,1626728237441
Fix,GT,37.4603021,-122.2907299,131.0717519993186,28.980284,0.1,167.5393,1626728238441
Fix,GT,37.4600484,-122.2906548,130.53591601371767,28.873295,0.1,165.78516,1626728239441
Fix,GT,37.459798,-122.2905698,129.89203437039257,28.776077,0.1,163.74127,1626728240441
Fix,GT,37.4595505,-122.2904737,129.31991598033903,28.748629,0.1,161.87042,1626728241441
Fix,GT,37.4593057,-122.2903688,128.75832817858458,28.667023,0.1,160.35352,1626728242441
Fix,GT,37.4590639,-122.2902549,128.24773655629158,28.682796,0.1,158.42938,1626728243441
Fix,GT,37.4588249,-122.2901313,127.683324344784,28.691906,0.1,156.7591,1626728244441
Fix,GT,37.4585887,-122.2899994,127.08978997674583,28.715038,0.1,155.15259,1626728245441
Fix,GT,37.4583555,-122.2898584,126.46426327523588,28.75637,0.1,153.32336,1626728246441
Fix,GT,37.4581258,-122.289708,125.8933243587911,28.788677,0.1,151.43811,1626728247441
Fix,GT,37.4579001,-122.2895476,125.33932809990644,28.822025,0.1,149.41357,1626728248441
Fix,GT,37.4576772,-122.2893786,124.82262581962348,29.015896,0.1,148.15887,1626728249441
Fix,GT,37.4574561,-122.2892009,124.35745024746656,29.284294,0.1,146.54053,1626728250441
Fix,GT,37.4572376,-122.2890133,124.0201067929268,29.496517,0.1,144.6308,1626728251441
Fix,GT,37.4570227,-122.2888155,123.79469826042651,29.6643,0.1,142.66437,1626728252441
Fix,GT,37.4568123,-122.2886077,123.64253038045764,29.797703,0.1,140.84845,1626728253441
Fix,GT,37.4566064,-122.2883906,123.57929405784606,29.899883,0.1,138.95355,1626728254441
Fix,GT,37.4564058,-122.2881644,123.67041623541712,29.96505,0.1,136.93701,1626728255441
Fix,GT,37.4562119,-122.2879289,123.90354210495948,29.968266,0.1,134.84607,1626728256441
Fix,GT,37.4560244,-122.2876854,124.21642763745784,29.955929,0.1,133.08704,1626728257441
Fix,GT,37.4558431,-122.287435,124.62954982763527,29.92308,0.1,131.37976,1626728258441
Fix,GT,37.4556671,-122.2871789,125.05207652193307,29.904987,0.1,130.04669,1626728259441
Fix,GT,37.4554947,-122.286919,125.3234810284972,29.927118,0.1,129.54962,1626728260441
Fix,GT,37.4553228,-122.2866582,125.63348875236512,29.937899,0.1,129.3682,1626728261441
Fix,GT,37.4551512,-122.2863973,126.11502316838502,29.948214,0.1,129.48535,1626728262441
Fix,GT,37.4549789,-122.2861358,126.76909577846529,30.084831,0.1,129.50418,1626728263441
Fix,GT,37.4548052,-122.2858735,127.42626757353544,30.283897,0.1,129.74542,1626728264441
Fix,GT,37.4546298,-122.2856093,128.10238204956053,30.56615,0.1,129.55817,1626728265441
Fix,GT,37.4544544,-122.2853427,128.7659203121066,30.604214,0.1,129.29303,1626728266441
Fix,GT,37.4542793,-122.2850749,129.4256798315048,30.68475,0.1,129.27258,1626728267441
Fix,GT,37.4541035,-122.2848066,130.1098592788875,30.671906,0.1,129.31259,1626728268441
Fix,GT,37.4539288,-122.2845408,130.76161485788225,30.358578,0.1,129.59058,1626728269441
Fix,GT,37.4537542,-122.2842763,131.421206543684,30.449348,0.1,129.40387,1626728270441
Fix,GT,37.4535792,-122.2840101,132.1086148416996,30.600868,0.1,129.52917,1626728271441
Fix,GT,37.4534027,-122.2837433,132.81833273407818,30.780735,0.1,129.60815,1626728272441
Fix,GT,37.4532251,-122.2834745,133.48308039438723,30.977985,0.1,129.4917,1626728273441
Fix,GT,37.4530472,-122.2832036,134.11437815070153,31.161285,0.1,129.28296,1626728274441
Fix,GT,37.4528682,-122.2829306,134.69943550205232,31.31875,0.1,129.34576,1626728275441
Fix,GT,37.4526896,-122.2826591,135.22678259781003,30.994694,0.1,129.4325,1626728276441
Fix,GT,37.4525123,-122.2823894,135.69778663444518,30.873766,0.1,129.36053,1626728277441
Fix,GT,37.4523357,-122.2821199,136.13859926122427,30.899616,0.1,129.24554,1626728278441
Fix,GT,37.4521591,-122.2818494,136.4916644347906,30.94933,0.1,129.17853,1626728279441
Fix,GT,37.4519823,-122.2815785,136.80989333152772,30.973469,0.1,129.22824,1626728280441
Fix,GT,37.4518056,-122.2813093,137.04206889247894,30.810379,0.1,129.51819,1626728281441
Fix,GT,37.4516281,-122.2810412,137.24718742990495,30.899601,0.1,129.66669,1626728282441
Fix,GT,37.4514499,-122.2807717,137.3853548025787,31.058292,0.1,129.51318,1626728283441
Fix,GT,37.4512712,-122.2805007,137.47846924132108,31.183455,0.1,129.37802,1626728284441
Fix,GT,37.4510928,-122.2802272,137.50982854482533,31.364922,0.1,129.01044,1626728285441
Fix,GT,37.4509141,-122.2799513,137.4816369948983,31.541199,0.1,128.9552,1626728286441
Fix,GT,37.4507342,-122.2796736,137.37311852636935,31.771399,0.1,129.09698,1626728287441
Fix,GT,37.450552,-122.2793951,137.20899218702317,31.9978,0.1,129.46606,1626728288441
Fix,GT,37.4503673,-122.2791156,136.95146179410816,32.24572,0.1,129.52765,1626728289441
Fix,GT,37.4501821,-122.2788344,136.7063965767026,32.207382,0.1,129.52997,1626728290441
Fix,GT,37.4499981,-122.278555,136.24820941835642,31.90419,0.1,129.43713,1626728291441
Fix,GT,37.4498163,-122.2782782,135.9082821342945,31.55834,0.1,129.35736,1626728292441
Fix,GT,37.4496366,-122.2780041,135.46256424999237,31.262976,0.1,129.33862,1626728293441
Fix,GT,37.449458,-122.2777326,134.93604543673993,31.051306,0.1,129.55298,1626728294441
Fix,GT,37.4492797,-122.2774637,134.37909485653043,30.878944,0.1,129.81207,1626728295441
Fix,GT,37.4491009,-122.2771964,133.71655633461475,30.877758,0.1,129.98633,1626728296441
Fix,GT,37.4489214,-122.2769295,132.9980829411149,30.939066,0.1,130.20804,1626728297441
Fix,GT,37.4487402,-122.2766631,132.19460560432077,31.025375,0.1,130.69464,1626728298441
Fix,GT,37.4485566,-122.276398,131.30407109159233,31.11746,0.1,130.99472,1626728299441
Fix,GT,37.4483717,-122.2761332,130.42148719340562,31.164213,0.1,131.25067,1626728300441
Fix,GT,37.448186,-122.2758687,129.54072384786605,31.193514,0.1,131.26181,1626728301441
Fix,GT,37.448,-122.2756044,128.64366266959905,31.20659,0.1,131.41116,1626728302441
Fix,GT,37.4478138,-122.2753401,127.72772377443312,31.212158,0.1,131.17462,1626728303441
Fix,GT,37.4476289,-122.2750748,126.82389928257466,31.167606,0.1,130.99744,1626728304441
Fix,GT,37.4474446,-122.274809,125.92931522706152,31.180122,0.1,130.99182,1626728305441
Fix,GT,37.4472595,-122.2745435,125.0404869710207,31.25578,0.1,131.1416,1626728306441
Fix,GT,37.4470734,-122.2742773,124.14255179393292,31.436598,0.1,131.26367,1626728307441
Fix,GT,37.4468853,-122.2740095,123.321437361449,31.714966,0.1,131.32336,1626728308441
Fix,GT,37.4466953,-122.2737394,122.59214374041557,32.0375,0.1,131.27798,1626728309441
Fix,GT,37.4465036,-122.2734663,121.978735796839,32.377117,0.1,131.1955,1626728310441
Fix,GT,37.4463106,-122.273191,121.55780854034424,32.377823,0.1,131.4577,1626728311441
Fix,GT,37.4461174,-122.2729174,121.28586607891322,32.3607,0.1,131.41125,1626728312441
Fix,GT,37.445925,-122.2726417,121.02410277599095,32.511635,0.1,130.65259,1626728313441
Fix,GT,37.4457354,-122.2723607,120.91769852110744,32.59952,0.1,129.59488,1626728314441
Fix,GT,37.4455521,-122.2720748,120.85835466265678,32.30494,0.1,127.8584,1626728315441
Fix,GT,37.4453777,-122.2717844,120.80759136506916,32.07905,0.1,126.15033,1626728316441
Fix,GT,37.4452112,-122.2714901,120.85270651978254,31.749432,0.1,124.52429,1626728317441
Fix,GT,37.4450535,-122.2711934,120.97977130699158,31.420837,0.1,122.75543,1626728318441
Fix,GT,37.4449044,-122.270893,121.22660380882024,31.219856,0.1,120.95331,1626728319441
Fix,GT,37.4447634,-122.2705891,121.5307181648016,31.018776,0.1,119.319885,1626728320441
Fix,GT,37.4446302,-122.2702823,121.89448950099944,30.809937,0.1,117.693634,1626728321441
Fix,GT,37.4445047,-122.2699732,122.24919161605835,30.602741,0.1,116.15973,1626728322441
Fix,GT,37.4443867,-122.2696619,122.64277939283848,30.408278,0.1,114.55698,1626728323441
Fix,GT,37.4442769,-122.2693483,122.85542470145224,30.251245,0.1,112.818115,1626728324441
Fix,GT,37.4441747,-122.2690326,123.25519166183471,30.051582,0.1,111.32211,1626728325441
Fix,GT,37.4440802,-122.2687157,123.64137159010768,29.856792,0.1,109.63611,1626728326441
Fix,GT,37.4439934,-122.2683971,123.96607737505435,29.715462,0.1,107.994965,1626728327441
Fix,GT,37.4439143,-122.2680773,124.31760765400529,29.569134,0.1,106.46472,1626728328441
Fix,GT,37.4438414,-122.2677568,124.6686039622426,29.4454,0.1,105.31766,1626728329441
Fix,GT,37.4437745,-122.267435,125.00808115240932,29.43686,0.1,103.72107,1626728330441
Fix,GT,37.4437153,-122.2671108,125.35660772824288,29.437752,0.1,101.96124,1626728331441
Fix,GT,37.4436641,-122.2667847,125.68701625013352,29.41079,0.1,100.24454,1626728332441
Fix,GT,37.4436206,-122.2664569,126.01836729562282,29.410736,0.1,98.60916,1626728333441
Fix,GT,37.4435844,-122.2661276,126.29737107262017,29.42817,0.1,97.05768,1626728334441
Fix,GT,37.443555,-122.265797,126.57824488162994,29.453339,0.1,95.63934,1626728335441
Fix,GT,37.4435322,-122.2654653,126.76730611097813,29.473576,0.1,94.15408,1626728336441
Fix,GT,37.4435163,-122.2651329,126.93794315573572,29.475452,0.1,92.63956,1626728337441
Fix,GT,37.4435077,-122.2647997,127.05594694328308,29.532055,0.1,90.981415,1626728338441
Fix,GT,37.4435065,-122.2644658,127.10058775430916,29.595234,0.1,89.476654,1626728339441
Fix,GT,37.4435127,-122.2641308,127.0369962140024,29.701561,0.1,87.90509,1626728340441
Fix,GT,37.4435256,-122.2637952,127.08087753534318,29.767647,0.1,86.42297,1626728341441
Fix,GT,37.4435451,-122.2634594,127.00682449376582,29.835955,0.1,85.09967,1626728342441
Fix,GT,37.4435728,-122.2631237,126.903571346581,29.913343,0.1,83.036316,1626728343441
Fix,GT,37.4436087,-122.2627879,126.60339582926036,30.074581,0.1,81.684906,1626728344441
Fix,GT,37.4436481,-122.2624513,126.26004480928182,30.052074,0.1,81.69061,1626728345441
Fix,GT,37.4436854,-122.2621163,125.92557130903006,29.787483,0.1,82.25772,1626728346441
Fix,GT,37.4437206,-122.2617834,125.61328527921438,29.721687,0.1,82.25122,1626728347441
Fix,GT,37.4437565,-122.2614502,125.40234277039768,29.788322,0.1,82.17627,1626728348441
Fix,GT,37.4437927,-122.2611162,125.21393051481246,29.880651,0.1,82.1203,1626728349441
Fix,GT,37.4438297,-122.2607811,125.03381252869964,29.972294,0.1,81.9382,1626728350441
Fix,GT,37.4438673,-122.2604453,124.8341097217798,30.044668,0.1,81.93765,1626728351441
Fix,GT,37.4439039,-122.2601085,124.56057124018668,30.120117,0.1,82.454315,1626728352441
Fix,GT,37.4439374,-122.2597703,124.18638376793264,30.192493,0.1,83.17465,1626728353441
Fix,GT,37.4439671,-122.259431,123.74503645968436,30.193398,0.1,84.40262,1626728354441
Fix,GT,37.4439879,-122.2590911,123.26079601693152,30.16365,0.1,86.65546,1626728355441
Fix,GT,37.4439994,-122.2587502,122.72767716312408,30.229553,0.1,88.27942,1626728356441
Fix,GT,37.4440022,-122.258408,122.11555462372304,30.318829,0.1,90.471924,1626728357441
Fix,GT,37.4439945,-122.2580648,121.42473009467123,30.446178,0.1,92.44949,1626728358441
Fix,GT,37.4439779,-122.2577215,120.6538443014622,30.390356,0.1,94.36752,1626728359441
Fix,GT,37.443952,-122.2573804,119.82472531405092,30.241413,0.1,96.35156,1626728360441
Fix,GT,37.443917,-122.2570422,118.93583238601684,30.117178,0.1,98.210815,1626728361441
Fix,GT,37.4438733,-122.2567069,117.96500787353516,30.025242,0.1,100.27246,1626728362441
Fix,GT,37.4438207,-122.2563742,116.91289229422809,30.016342,0.1,101.997345,1626728363441
Fix,GT,37.4437595,-122.2560434,115.81265545976164,30.103954,0.1,103.907776,1626728364441
Fix,GT,37.4436896,-122.255714,114.62205587887765,30.214851,0.1,105.90784,1626728365441
Fix,GT,37.4436106,-122.2553863,113.37112048685552,30.366592,0.1,107.74585,1626728366441
Fix,GT,37.4435216,-122.2550608,112.138876945436,30.541712,0.1,109.909515,1626728367441
Fix,GT,37.443423,-122.2547372,110.88264677488806,30.767376,0.1,111.81348,1626728368441
Fix,GT,37.4433151,-122.2544155,109.62305240377783,30.999168,0.1,113.55884,1626728369441
Fix,GT,37.4431986,-122.2540958,108.37046463808416,31.19852,0.1,115.48456,1626728370441
Fix,GT,37.4430728,-122.2537793,107.08629233574868,31.403841,0.1,117.3349,1626728371441
Fix,GT,37.4429378,-122.2534663,105.81940647172928,31.575434,0.1,119.39609,1626728372441
Fix,GT,37.4427926,-122.2531582,104.55870447683331,31.73898,0.1,121.66803,1626728373441
Fix,GT,37.442637,-122.2528563,103.26988297644256,31.892746,0.1,124.02173,1626728374441
Fix,GT,37.4424711,-122.252561,101.98240932279823,31.988323,0.1,126.1279,1626728375441
Fix,GT,37.4422972,-122.2522731,100.759472938776,31.943066,0.1,128.0159,1626728376441
Fix,GT,37.4421161,-122.2519929,99.47223364463449,31.890747,0.1,129.92932,1626728377441
Fix,GT,37.4419272,-122.2517218,98.10346738874912,31.841513,0.1,132.07898,1626728378441
Fix,GT,37.4417324,-122.2514584,96.9520635175109,31.715649,0.1,133.43384,1626728379441
Fix,GT,37.441535,-122.2512002,95.81335024905204,31.593662,0.1,133.80939,1626728380441
Fix,GT,37.4413378,-122.2509434,94.55329173457622,31.532387,0.1,133.88446,1626728381441
Fix,GT,37.4411409,-122.2506867,93.28729167592525,31.525616,0.1,133.73141,1626728382441
Fix,GT,37.4409444,-122.2504296,92.05576519691944,31.49546,0.1,133.63623,1626728383441
Fix,GT,37.4407483,-122.2501725,90.79681797611713,31.48125,0.1,133.70471,1626728384441
Fix,GT,37.440552,-122.2499159,89.57128883269428,31.466686,0.1,133.78064,1626728385441
Fix,GT,37.4403556,-122.2496594,88.28546692681313,31.466578,0.1,133.70316,1626728386441
Fix,GT,37.4401594,-122.2494028,87.0474642751813,31.44431,0.1,133.6839,1626728387441
Fix,GT,37.4399636,-122.2491462,85.83817720437048,31.424568,0.1,133.6499,1626728388441
Fix,GT,37.4397677,-122.2488901,84.64364475145936,31.391762,0.1,133.93054,1626728389441
Fix,GT,37.4395702,-122.2486362,83.32752198776603,31.397076,0.1,134.48383,1626728390441
Fix,GT,37.4393713,-122.2483836,81.9666421175599,31.415764,0.1,134.64276,1626728391441
Fix,GT,37.4391719,-122.248132,80.71823220071197,31.402802,0.1,134.89224,1626728392441
Fix,GT,37.4389713,-122.2478817,79.42099293327331,31.393942,0.1,135.19089,1626728393441
Fix,GT,37.4387704,-122.2476333,78.18729335877299,31.18851,0.1,135.43073,1626728394441
Fix,GT,37.4385708,-122.2473892,76.84400138878823,30.582516,0.1,135.90402,1626728395441
Fix,GT,37.4383749,-122.2471544,75.78670092597604,29.572632,0.1,136.92816,1626728396441
Fix,GT,37.4381797,-122.2469334,74.59182583236694,28.867937,0.1,138.71753,1626728397441
Fix,GT,37.4379833,-122.2467244,73.36835216701031,28.297028,0.1,140.15082,1626728398441
Fix,GT,37.4377896,-122.2465241,72.16128002551197,27.388683,0.1,140.51385,1626728399441
Fix,GT,37.4376017,-122.2463311,71.06853613376617,26.547058,0.1,140.5423,1626728400441
Fix,GT,37.4374188,-122.2461436,69.97665880042314,25.881008,0.1,140.8977,1626728401441
Fix,GT,37.4372403,-122.2459618,69.01418307828904,25.19085,0.1,140.96454,1626728402441
Fix,GT,37.4370667,-122.2457842,67.95488894736766,24.528996,0.1,140.7594,1626728403441
Fix,GT,37.4368987,-122.2456095,66.88282751658559,23.969696,0.1,140.08191,1626728404441
Fix,GT,37.4367344,-122.2454342,65.67710835635663,23.983269,0.1,139.15521,1626728405441
Fix,GT,37.4365713,-122.2452556,64.40564327022433,24.001328,0.1,138.59457,1626728406441
Fix,GT,37.4364106,-122.2450777,63.079002736687656,23.526888,0.1,138.4972,1626728407441
Fix,GT,37.4362539,-122.2449042,61.86217811256647,22.894638,0.1,138.49173,1626728408441
Fix,GT,37.436101,-122.2447346,60.68911666661501,22.458408,0.1,138.36884,1626728409441
Fix,GT,37.4359506,-122.2445679,59.547884870618574,22.124374,0.1,138.47537,1626728410441
Fix,GT,37.4358029,-122.2444038,58.548483011484144,21.604193,0.1,138.33643,1626728411441
Fix,GT,37.4356611,-122.2442463,57.82938625216484,20.202581,0.1,138.57617,1626728412441
Fix,GT,37.4355322,-122.2441048,57.42010539245605,17.891523,0.1,138.89594,1626728413441
Fix,GT,37.4354185,-122.2439807,57.207403589248656,15.545406,0.1,139.00922,1626728414441
Fix,GT,37.435321,-122.2438735,57.00057903254032,13.16353,0.1,138.23938,1626728415441
Fix,GT,37.4352456,-122.2437783,56.784103674829005,10.768326,0.1,131.95438,1626728416441
Fix,GT,37.435198,-122.2436851,56.54681416386366,9.06647,0.1,116.62149,1626728417441
Fix,GT,37.4351821,-122.2435875,56.337221088260414,8.821464,0.1,94.10834,1626728418441
Fix,GT,37.4352022,-122.2434926,56.16298256433011,8.940249,0.1,67.455505,1626728419441
Fix,GT,37.4352453,-122.2434001,55.82162999880315,10.18545,0.1,58.649933,1626728420441
Fix,GT,37.4352959,-122.243297,55.4897457008958,11.133055,0.1,58.416412,1626728421441
Fix,GT,37.4353494,-122.2431866,55.10292113023996,11.623475,0.1,58.733826,1626728422441
Fix,GT,37.4354032,-122.2430733,54.71150883245468,11.698056,0.1,59.365143,1626728423441
Fix,GT,37.4354561,-122.2429593,54.33297373706103,11.53005,0.1,59.741943,1626728424441
Fix,GT,37.4355073,-122.2428493,53.93015791702271,10.971806,0.1,59.815887,1626728425441
Fix,GT,37.4355556,-122.2427453,53.54791946300864,10.222596,0.1,59.64084,1626728426441
Fix,GT,37.435598,-122.2426554,53.24945772078634,8.062996,0.1,59.463654,1626728427441
Fix,GT,37.4356293,-122.2425889,53.02375437092781,5.657646,0.1,59.45758,1626728428441
Fix,GT,37.43565,-122.2425453,52.86646489942074,3.33389,0.1,59.329407,1626728429441
Fix,GT,37.4356607,-122.2425231,52.78252473297715,1.4123173,0.1,58.790344,1626728430441
Fix,GT,37.4356644,-122.242516,52.753587717235085,0.28277838,0.1,58.216644,1626728431441
Fix,GT,37.4356649,-122.2425152,52.7470015719831,0.03942381,0.1,58.07657,1626728432441
Fix,GT,37.435665,-122.2425151,52.745998428046704,0.0047823703,0.1,58.065125,1626728433441
Fix,GT,37.435665,-122.2425151,52.745,0.0011707738,0.1,58.065063,1626728434441
Fix,GT,37.435665,-122.2425151,52.745001571923495,0.0012434397,0.1,58.06555,1626728435441
Fix,GT,37.435665,-122.2425151,52.745001571923495,0.001,0.1,58.06537,1626728436441
Fix,GT,37.435665,-122.2425151,52.745,0.001,0.1,58.06549,1626728437441
Fix,GT,37.435665,-122.2425151,52.745001571923495,0.0010000002,0.1,58.06555,1626728438441
Fix,GT,37.435665,-122.2425151,52.745,0.001,0.1,58.06537,1626728439441
Fix,GT,37.435665,-122.2425151,52.745,0.001,0.1,58.065247,1626728440441
Fix,GT,37.435665,-122.2425151,52.745001571923495,0.001,0.1,58.065216,1626728441441
Fix,GT,37.435665,-122.2425151,52.745,0.001,0.1,58.06537,1626728442441
Fix,GT,37.435665,-122.2425151,52.7449984280765,0.0004122877,0.1,58.06537,1626728443441
Fix,GT,37.435665,-122.2425151,52.745,0.0,0.1,58.065277,1626728444441
Fix,GT,37.435665,-122.2425151,52.745,0.001,0.1,58.065277,1626728445441
Fix,GT,37.435665,-122.2425151,52.7449984280765,0.0012434379,0.1,58.065216,1626728446441
Fix,GT,37.435665,-122.2425151,52.745001571923495,0.001,0.1,58.065308,1626728447441
Fix,GT,37.435665,-122.2425151,52.745001571923495,0.0,0.1,58.065308,1626728448441
Fix,GT,37.435665,-122.2425151,52.745001571923495,0.0,0.1,58.065125,1626728449441
